LAT,LONG,NAME
34.9756338,-85.5841325,Scealf School (historical)
34.8428566,-85.5613545,Brown Gap School (historical)
34.8850783,-85.5488538,Davis High School
34.8723001,-85.5188527,Northwest Georgia High School
34.8742445,-85.5121857,Dade Elementary School
34.8731334,-85.5116302,Dade Middle School
34.6614701,-85.5113522,Head River School (historical)
34.9645212,-85.5032959,Murphy Hollow School (historical)
34.8148004,-85.4838518,New Salem School (historical)
34.5236958,-85.4810719,Cloudland School
34.4770304,-85.4755158,Menlo Elementary School
34.9420211,-85.450239,North Dade School
34.5953607,-85.4488494,Pleasant Grove School (historical)
34.7581343,-85.4421839,Mount Carmel School (historical)
34.7175797,-85.4302387,Cedar Grove School
34.7175797,-85.4302387,Saint Marys Institute (historical)
34.2006503,-85.4274574,Foster Bend School (historical)
34.8389667,-85.4257941,Ascalon School (historical)
34.9189657,-85.4180159,West Brow School (historical)
34.1728733,-85.4171792,Melson School (historical)
34.8534109,-85.4166271,Gillen School
34.2631485,-85.4135685,Prospect School (historical)
34.8600775,-85.4096824,Lookout Mountain Rural School
34.4053663,-85.4091246,Lyerly High School (historical)
34.4050885,-85.4088468,Lyerly Elementary School
34.9025769,-85.399682,Payne School (historical)
34.7931338,-85.3913486,Prospect School (historical)
34.185373,-85.3877341,McGee School (historical)
34.2373159,-85.3871788,Morton School (historical)
34.5653616,-85.3871804,Teloga School
34.7836894,-85.3813482,Pleasant Grove School (historical)
34.9564651,-85.3799591,Lookout Mountain Junior High School
34.8139668,-85.3752369,Marble Top School
34.9656316,-85.3752368,Covenant College
34.7820227,-85.3735702,Kensington School (historical)
34.8647995,-85.3674588,High Point (historical)
34.0239887,-85.3599546,Fite School (historical)
34.464809,-85.359679,Chattooga County High School
34.4650868,-85.359679,Chattooga High School
34.6114715,-85.3596798,Napier Chapel School (historical)
34.9750758,-85.3594029,Fairland School
34.9750758,-85.3594029,Fairyland Elementary School
34.9292431,-85.3588474,Chattanooga Valley High School
34.461198,-85.3555122,Summerville Middle School
34.6075827,-85.3532907,Center Post School
34.6184157,-85.3519018,Chattooga Academy (historical)
34.6534147,-85.3513465,Fairview School
34.8581329,-85.3513472,Garrett School (historical)
33.9539902,-85.3507874,Old Brewster School (historical)
34.7486899,-85.3494025,Estelle School (historical)
34.9347985,-85.3466249,Chattanooga Valley School
34.4823085,-85.341623,North Summerville Elementary School
34.4753644,-85.3374561,Summerville Elementary School
34.110653,-85.3355101,Cave Spring Elementary School
34.1070419,-85.3327322,Georgia School for the Deaf
33.7451052,-85.3296753,Riverside School (historical)
34.8220221,-85.3269018,Pond Spring Elementary School (historical)
34.8539662,-85.3266241,Oak Grove School (historical)
34.7184129,-85.3260682,Burnt Mill School
33.6098308,-85.3246734,Colefield School (historical)
34.2612043,-85.3241218,Coosa Schools
34.353146,-85.3238443,Evergreen School (historical)
34.263982,-85.3227328,Krannert School
34.9097987,-85.3202351,Mountain View Elementary School
34.5173076,-85.315789,Pennville School
34.94907,-85.314159,Rossville Middle School
34.851744,-85.3135681,Pond Springs School
34.5439735,-85.3124557,Trion High School
34.662859,-85.3105118,Mount Carmel School (historical)
33.5445547,-85.3088389,Melrose School (historical)
34.4020333,-85.307455,Silver Hill School (historical)
34.8850768,-85.3074569,Wallaceville School
34.9620201,-85.3069014,Happy Valley School
33.5826094,-85.3041171,Hillcrest School (historical)
34.0520436,-85.3041199,Fite School
34.2625932,-85.3041212,Coosa High School
33.771216,-85.2966191,West Haralson School
34.9814643,-85.2960679,Rossville High School
34.8684103,-85.2949564,Gordon Lee School
33.9853788,-85.2938415,Brewster School
34.8689659,-85.2935675,Chickamauga Elementary School
34.8689659,-85.2935675,Chickamauga High School (historical)
34.9706311,-85.2935678,South Rossville Elementary School
34.7009134,-85.2924558,Fortune School
33.7495497,-85.2899522,Tallapoosa Primary School
33.73955,-85.2896743,Tallapoosa Public School (historical)
33.748161,-85.2896744,Haralson County Elementary School
33.748161,-85.2896744,Tallapoosa High School (historical)
33.748161,-85.2896744,Tallapoosa Male and Female Collge (historical)
34.7095242,-85.2885668,Linwood School
34.9803532,-85.2882899,North Rossville School
33.4959449,-85.2874489,Midway School (historical)
34.9406315,-85.2866231,Fairview School
34.1481521,-85.2863423,Bellview School (historical)
34.6981358,-85.2838443,West LaFayette School
34.7081355,-85.2838444,LaFayette High School
34.6175825,-85.2835662,Wesley Chapel School (historical)
34.7070243,-85.2816221,Chattooga Academy (historical)
34.2306498,-85.2810649,Payne School (historical)
34.8950765,-85.2785671,Osburn School
34.6517482,-85.2777328,Lee School
34.7164685,-85.2771775,North LaFayette School
34.9453536,-85.2752339,White Row School (historical)
34.0123226,-85.2691187,West End Grammar School (historical)
33.658441,-85.2685616,Pate School (historical)
34.7503564,-85.2682884,Warren School (historical)
34.9420202,-85.2652336,Saint Gerard School
34.9728531,-85.2649559,Lakeview Elementary School
33.3170611,-85.2635575,High Point School (historical)
33.3501158,-85.2618911,Red Oak Academy (historical)
33.5378885,-85.2618931,Bowdon High School
34.9439646,-85.260789,Fort Oglethorpe Elementary School
34.0117672,-85.2591184,Cedartown High School
34.4595317,-85.2591205,Gore School
34.0117672,-85.2588406,Purks Middle School
34.9722975,-85.2577335,Lakeview High School
34.0328777,-85.2574518,College Street School
33.9820456,-85.2571738,Benedict School
34.8756323,-85.2563441,Red Belt School (historical)
33.5878873,-85.2555049,Indian Creek School (historical)
34.3059253,-85.2538422,Possum Trot School
33.4056699,-85.2532803,Ephesus Elementary School
34.0823207,-85.2530076,Northside School
33.4787233,-85.2527256,Reeves School (historical)
34.0039896,-85.2510625,Cedar Hill High School (historical)
34.9645198,-85.2507888,Cloud Springs Elementary School
33.5267777,-85.2505039,Hudson School
33.5273332,-85.2493927,Bowdon Elementary School
33.3045615,-85.2488347,Ridgeway School (historical)
34.6675811,-85.2482874,Corinth School
34.8097999,-85.2471768,Walker County Area Technical School
34.0003786,-85.2468957,Cedar Hill School
33.3459493,-85.2468906,Walnut Hill School (historical)
34.0081562,-85.2466181,Eastview Public School (historical)
33.764272,-85.24384,Haralson High School
34.0089895,-85.2435624,Ethel Harpst School for Dependent Children (historical)
34.0109338,-85.2421735,Lyle School
34.2837038,-85.239675,Garden Lakes Elementary School
34.6981358,-85.2391205,Dry Creek School
34.3587015,-85.2380085,Orsman School (historical)
34.8167444,-85.2380099,Rock Spring School
34.9472979,-85.2349549,Lakeview-Fort Oglethorpe High School
34.3281469,-85.2349528,Berry Academy
34.2598156,-85.2341193,Alto Park School
34.2703709,-85.2327304,West End School
34.0534326,-85.2321735,Lake Creek School
34.4875865,-85.2321752,Farmersville School (historical)
34.512308,-85.2291196,Johnson School (historical)
34.2214834,-85.2285633,Mount Alto School (historical)
34.9622977,-85.2260658,Westside School
33.8845475,-85.225784,Felton Junior High School (historical)
34.6995247,-85.2221755,Hickory Hill School
34.8470217,-85.2216206,Pea Vine Academy (historical)
34.3312024,-85.2210634,Central Grove School (historical)
33.6509414,-85.2191158,Jake School (historical)
34.8981321,-85.2155096,Burning Bush School (historical)
33.48539,-85.2110579,Fairview School (historical)
34.2778707,-85.2107852,West Central Elementary School
33.7153844,-85.2107831,Waco School
34.9847974,-85.2105099,Unity School
34.6945249,-85.209675,Naomi Elementary School
33.5481662,-85.2091143,Antioch School (historical)
34.1709319,-85.2082918,Georgia Highlands College
34.2659266,-85.2074518,Elm Street School
33.1665094,-85.2074437,Stateline Academy (historical)
34.8922989,-85.2027313,Post Oak School (historical)
33.154843,-85.2010546,Mount Zion Academy (historical)
33.468446,-85.1971685,Tyus School
34.2575935,-85.1963403,Shorter College
34.6298047,-85.1932853,West Armuchee School
33.5917763,-85.190781,Pine Tucky School (historical)
33.2034531,-85.1907768,Union Grove School (historical)
34.1295415,-85.1905062,Reesburg School (historical)
34.2903704,-85.1891179,Berry College
34.6445265,-85.1891186,Prospect School
33.8062158,-85.1888386,Buchanan Elementary School
33.5589993,-85.1874472,Sackville School (historical)
34.5586957,-85.1871738,Subligna Junior High School (historical)
34.9636867,-85.1868978,Pleasant View School (historical)
33.8076047,-85.186894,Buchanan Middle School
34.2620378,-85.1868955,Darlington Lower School
33.6348308,-85.1866148,Mount Zion Elementary School
33.443169,-85.1860569,Storyville School (historical)
34.2192613,-85.1857842,McHenry Junior High School
34.395645,-85.1857845,Piney School (historical)
33.7339952,-85.1852271,Holland School (historical)
34.9236873,-85.1852309,Boynton Elementary School
34.2245389,-85.1849509,Darlington School
34.2475939,-85.1846732,Davis School
33.6376086,-85.1841148,Mount Zion High School
34.1687071,-85.1841173,Pepperell Middle School
34.2731487,-85.1821731,Glenwood School (historical)
33.4037256,-85.1818896,Unity School (historical)
34.2437051,-85.1813398,South Rome School
34.8442442,-85.1796747,Mount Pisgah School (historical)
34.180929,-85.1785616,Pepperell High School
34.2642601,-85.1785619,Fifth Avenue Public School (historical)
33.987601,-85.1768941,Biggers School (historical)
34.2392608,-85.1763396,East Main Street School
34.1800957,-85.1760615,Pepperell Elementary School
32.8787389,-85.1741078,West Point High School
34.33898,-85.173284,Armuchee High School
32.8745724,-85.1732743,West Point Academy (historical)
32.8745724,-85.1732743,West Point Elementary School
34.2250945,-85.1710616,Coosa Valley Tech School
34.2342609,-85.1705061,Eighth Ward School (historical)
34.2339832,-85.1702283,Southeast Elementary School
32.8765168,-85.1702187,Tenth Street School
34.2545381,-85.1680061,Central Primary School
34.2492605,-85.1677282,East Rome Junior High School
33.341783,-85.167722,Simpson School (historical)
34.2373164,-85.1666171,Banks School
34.2384274,-85.1652281,East Rome School
34.313703,-85.1646726,Glenwood Elementary School
33.9514906,-85.1638382,Antioch School (historical)
32.8804056,-85.1629963,Harrison High School
34.2520382,-85.1613391,East Rome High School
34.2337054,-85.1605058,East Central Elementary School
34.2803707,-85.1605058,Riverside School
34.3292582,-85.1605059,Warren School (historical)
33.3209502,-85.1593881,Mount Salem School (historical)
34.2453718,-85.1591168,Saint Marys School
34.2678711,-85.1574501,Northside School
32.9134602,-85.1574408,Pine Grove School (historical)
34.9686867,-85.154119,Graysville School
34.2581492,-85.1535611,Main Elementary School
33.7287177,-85.1530039,Jones School
33.5851099,-85.1513355,Sand Creek School (historical)
34.8048005,-85.1493957,Woodstation School (historical)
33.8912141,-85.1485599,Mountain View School (historical)
33.2548409,-85.1485538,Camp Ground School (historical)
34.1589852,-85.1480051,Donahue School (historical)
34.2650934,-85.1474498,North Rome School
34.176207,-85.1460606,Midway School
33.4126144,-85.141611,Welcome School (historical)
34.3614794,-85.1405052,Wright School (historical)
34.2670378,-85.1371717,North Heights Elementary School
34.6811924,-85.1349502,Armuchee Valley School
33.0204019,-85.1349409,Pleasant Grove School (historical)
34.284815,-85.1305049,Homewood School (historical)
33.4620575,-85.1296668,Roopville Elementary School
34.2409274,-85.1285603,Turner School (historical)
33.5503886,-85.1282789,Tallapoosa School (historical)
32.973181,-85.1260514,Center School
34.8150783,-85.1221726,Hickory Grove School (historical)
33.6745524,-85.1218912,Miller Academy (historical)
33.6328868,-85.1202241,Smyrna School (historical)
33.3917817,-85.115499,Bethel Academy (historical)
33.667886,-85.1152244,Walnut School (historical)
34.9228543,-85.1130063,Ringgold High School
34.9184099,-85.1124507,Ringgold Elementary School
34.6734149,-85.1116161,Villanow School (historical)
33.2820625,-85.111331,Johnson High School
33.0331796,-85.1107736,Tatum School
34.9214655,-85.1105062,Ringgold Junior High School
34.4012005,-85.1091153,Margie School (historical)
34.3484243,-85.1088375,Oostanaula School (historical)
33.3634491,-85.1071651,Centralhatchee High School (historical)
33.3637269,-85.1066096,Centralhatchee Elementary School
34.1181531,-85.1057815,Harmony School (historical)
34.957576,-85.1032839,Pleasant Valley School
33.3437275,-85.1004981,Riverside School (historical)
31.8854383,-85.1002084,Quitman County Elementary School
34.3087033,-85.0999483,Model High School
33.5717771,-85.0977229,State University of West Georgia
33.2770627,-85.0932748,Heard County High School
33.2776183,-85.0932748,Franklin Grammar School
34.1662073,-85.0902257,Unity School (historical)
34.1920399,-85.0885589,Bass School (historical)
33.5092786,-85.087722,Oak Grove School (historical)
33.4098368,-85.0857762,Glenloch School (historical)
33.6753859,-85.0832791,Bold Springs School (historical)
33.2248418,-85.0832741,Harmony School (historical)
34.7961899,-85.0830046,Trickum School (historical)
33.5764993,-85.0827225,Maple Street Grade School
34.4159224,-85.0827255,Poplar Spring School (historical)
33.5592775,-85.0821667,Carrollton Junior High School
32.9259603,-85.0821608,Gray Hill School
31.8859938,-85.0815967,Keglar School
33.5659439,-85.0813335,Carrollton High School
33.5828881,-85.0813337,Carver High School
33.581777,-85.080778,Alabama Street School
34.3678683,-85.079392,Enon School (historical)
34.0820428,-85.0780031,Jones School (historical)
33.2965067,-85.0768857,Ebenezer School (historical)
34.9042437,-85.0721715,Tiger Creek School
34.339258,-85.0718917,Model Elementary School
33.5837214,-85.0716112,College Street School
34.8772997,-85.0716158,Union Academy (historical)
34.7425799,-85.0713372,Fairview School
33.6334424,-85.0713339,Pine Grove School (historical)
33.5395557,-85.0704996,Central Middle School
33.5409445,-85.0699441,Central Primary School
33.552611,-85.0699442,Central High School
33.5403891,-85.0691107,Springview School
33.0331799,-85.0671612,Mount Beulah School (historical)
34.0026005,-85.0641138,Elm Street School
31.3560083,-85.0635399,Freeman School (historical)
33.0265133,-85.062161,Kight School
34.2762043,-85.0610581,Springdale School (historical)
34.2581494,-85.0605026,Johnson School
34.0020449,-85.0602248,Euharlee School
34.1192641,-85.0577247,Flint Hill School (historical)
31.1835131,-85.0568734,Good Hope School (historical)
33.0554016,-85.0566056,Hollis Hand School
33.0187358,-85.0557719,Jones Street School
33.4676131,-85.0549429,Mount Lowell School (historical)
34.7825792,-85.0516145,West Side School
34.7856348,-85.0505034,West Side High School
33.5676107,-85.0479994,Carroll County Vocational Technical School
33.7051076,-85.0480007,Harmony Grove School (historical)
31.6048903,-85.0468726,Clay County High School
33.0212358,-85.0457716,Southwest School
34.8459115,-85.0452258,Tunnel Hill School
34.9581318,-85.0443931,Salem School (historical)
33.0345688,-85.0441051,Westside Junior High School
31.6062792,-85.0438171,Fort Gaines Academy (historical)
32.9842924,-85.0424379,Pine View School (historical)
33.039291,-85.0424383,La Grange College
34.7320247,-85.0418916,Mill Creek Schoolhouse (historical)
34.2962038,-85.0413352,Wayside School (historical)
34.0017672,-85.0407799,Goodyear Elementary School
33.9987117,-85.0402243,Rockmart High School
33.0312356,-85.040216,Unity School
33.0084583,-85.0396602,Troup Technical School
33.8281603,-85.0388346,Draketown School (historical)
33.1229001,-85.0388278,Hillcrest Elementary School
32.0715443,-85.0388187,Florence School (historical)
32.816797,-85.0377141,Johnson School
33.5564999,-85.0374434,Oak Mountain Academy
33.5562221,-85.0371656,County Vocational School
33.0370688,-85.0368826,Harwell Avenue School (historical)
34.3778681,-85.0349461,Hickory Grove School (historical)
31.1499031,-85.0343732,Carver School
31.6104457,-85.0343723,Speight High School
33.046513,-85.0341049,La Grange High School
33.0540129,-85.0335493,Thomastown School
34.4034228,-85.0332793,Plainville Consolidated School (historical)
34.9325767,-85.0327259,Catoosa School
33.0095695,-85.0318822,Whitesville Road Middle School
33.647609,-85.0304997,Riverside School (historical)
33.6076099,-85.0277214,Shady Dell School (historical)
33.029569,-85.0266045,Cannon Street School
33.0423465,-85.0266046,Hill Street Junior High School
33.7320515,-85.0252225,Temple High School
32.6968009,-85.0249349,Mountain Hill School
34.4820317,-85.0238345,Oostanaula School (historical)
33.5598332,-85.0224431,Oak Mountain School (historical)
33.0429021,-85.0224378,Dawson Street School
33.0287357,-85.0221599,Kelly School
33.3417834,-85.0221627,Enon Grove School (historical)
34.4650878,-85.0216123,Georgia Cumberland Academy
31.3965631,-85.0215945,Sardis School (historical)
33.6070543,-85.0210546,Harris School (historical)
32.9604043,-85.0210482,Oak Grove School (historical)
33.032069,-85.0210488,Saint Elizabeth Mission School (historical)
33.0362356,-85.0179932,East Depot Street School
33.0348467,-85.0177154,La Grange Boys Junior High School
34.5620295,-85.0174457,Sugar Valley School
33.000681,-85.0163262,Troup County Comprehensive High School
33.3790046,-85.0088295,Pleasant Hill School (historical)
34.1706517,-85.0082787,Ligon School (historical)
33.0462354,-85.0082707,Dunson Mills School
34.3239808,-85.0080008,Dry Creek School (historical)
33.4220589,-85.00633,Spring View School (historical)
34.295926,-85.0055008,Barnsley School (historical)
33.5090011,-85.0054978,Union School (historical)
31.7309975,-85.0054827,Fairview School (historical)
34.241761,-85.0049452,Ransom School (historical)
34.7748018,-85.0027239,Dalton Junior College
34.4375886,-85.0007782,W L Swain School
34.7334138,-85.0005014,Dug Gap School
34.8770222,-84.9977244,Northwest High School
34.5045311,-84.9974447,Printup School (historical)
33.9223247,-84.9971673,Yorkville Elementary School
34.2031509,-84.9968894,Reynolds School (historical)
33.4506693,-84.9968856,Shiloh School (historical)
31.1104601,-84.9954838,Midway School (historical)
32.5015306,-84.9918765,Bibb City Elementary School
34.0928759,-84.9916118,Taylorsville School
32.4870866,-84.9896541,McLlhenny Elementary School
34.6809153,-84.9891119,Valley Point Middle School
32.4759759,-84.9885429,Sixteenth Street School
32.4756982,-84.9882651,Clatin Elementary School
32.1132098,-84.9879842,Mount Moriah School (historical)
33.2203978,-84.9871604,Harmonia School (historical)
32.5281963,-84.9871545,Brookstone School
34.6809153,-84.9868895,Valley Point School
34.7792463,-84.9866123,Dalton High School
32.484309,-84.9865986,Rose Hill Elementary School
32.4979196,-84.9857653,Fox Elementary School
32.5131969,-84.9854877,River Road Elementary School
33.1181782,-84.984104,Hickory Grove School (historical)
33.6273318,-84.9829982,Poplar Springs School (historical)
33.839549,-84.9810552,Union Elementary School
32.3576467,-84.9810416,Richard G Wilson School
33.5270562,-84.9804972,Center School (historical)
32.5062526,-84.9804876,Columbus Area Vocational Technical School
34.3695351,-84.9796664,Cunningham School (historical)
32.4606987,-84.9788204,Spencer Junior High School
32.489031,-84.9779874,Waverly Terrace Junior High School
33.5945548,-84.9777199,Midway School (historical)
32.5065304,-84.9777097,Daniel Junior High School
31.4385067,-84.9777043,Union School (historical)
32.0659888,-84.9777058,Bryan School (historical)
34.3406472,-84.9768885,Snow Springs School (historical)
32.4748648,-84.9765983,Linwood School
34.4614769,-84.9760551,Liberty School
32.5568063,-84.9757656,Double Churches School
32.4568099,-84.9749314,Manly Taylor Elementary School
33.3565053,-84.9738283,Midway School (historical)
34.780913,-84.9735563,Crown School
34.7550802,-84.9721672,Brookwood School
34.7731354,-84.9721673,Dalton Grade School (historical)
34.9028553,-84.9716126,Varnell Consolidated School
34.7736909,-84.971334,Crawford High School (historical)
32.51653,-84.9713208,Bealwood School
34.568974,-84.9710552,Max V Tolbert Elementary School
32.4945863,-84.970765,Jordan High School
34.7503581,-84.9705005,Atcooga School (historical)
34.7736909,-84.9702229,City Park School
33.4745576,-84.9699408,Springer School (historical)
32.5051415,-84.9693762,Harrison Avenue School
34.7661911,-84.9688339,Emory Street Public School (historical)
34.7667467,-84.9688339,Emory Street High School (historical)
32.4987528,-84.9688207,Johnson Elementary School
33.6681644,-84.9685536,Kinnay School (historical)
34.7575802,-84.9680005,Boylston Crown School (historical)
32.4095893,-84.9679864,Key Elementary School
30.9901857,-84.9665941,Saint Johns School
32.48292,-84.9665983,Saint Elmo Elementary School
34.7842464,-84.9657783,North Dalton Public School (historical)
33.3759492,-84.9654951,Elim School (historical)
32.4573654,-84.9652091,Shepherd Drive School
32.4568099,-84.9640979,Spencer School
33.0406802,-84.9641028,Clinton Chapel School (historical)
34.5045313,-84.9632769,Stephens School
34.7725799,-84.9632781,Fort Hill Elementary School
32.4793131,-84.9632712,Columbus High School
32.5143078,-84.9632651,Allen Elementary School
34.7717466,-84.9630004,Fort Hill Junior High School
34.7723021,-84.9618892,Fort Hill School
32.4568099,-84.9613201,Brown Avenue School
32.4693094,-84.9604869,Trinity School
32.5145855,-84.9602096,Arnold Junior High School
32.3582023,-84.9590967,Faith School
32.4709759,-84.9588202,Wynnton School
32.5020859,-84.9585428,Christian Life College of Theology
32.3551468,-84.9577078,Herbert J Dexter School
32.3662575,-84.9565968,Patch Kindergarten
34.5009203,-84.9563322,Calhoun High School
34.77008,-84.9560557,Morris Street School
32.4404215,-84.956042,Thirtieth Avenue Elementary School
32.5043081,-84.9557649,Rosemont School
34.4986982,-84.9554989,Calhoun Middle School
32.3637576,-84.95493,Edward White School
32.5273628,-84.954654,Britt David Elementary School
34.2364836,-84.9535545,Kingston School
32.4562542,-84.9535422,Radcliff School
33.4701133,-84.9513291,Rutherwood School (historical)
34.5045313,-84.9507764,North Georgia Seminary (historical)
32.4168113,-84.9502083,South Columbus School
32.4145891,-84.9499305,Eddy Junior High School
33.7627485,-84.9497546,Villa Rica Middle School
32.4273664,-84.9490973,Our Lady of Lourdes School
33.2326197,-84.9488263,Corinth Academy (historical)
32.4926418,-84.9488203,Clubview Elementary School
34.9609098,-84.9485566,Cohutta Consolidated School
34.5070313,-84.9482764,Calhoun Academy (historical)
34.7756355,-84.9482777,Roan Street School
32.4440325,-84.9482641,Winterfield Elementary School
32.9609602,-84.9479906,Rosemont School
32.4979194,-84.9479871,Hardaway High School
34.5792517,-84.9468877,Resaca School (historical)
32.3851457,-84.9465968,Custer Terrace School
32.4918085,-84.9465981,Richards Junior High School
32.4720869,-84.94632,Rigdon Road School
32.460143,-84.9460421,Carver Elementary School
34.8309122,-84.9457779,Pleasant Grove School
33.4159481,-84.9457727,Homewood School (historical)
33.7278853,-84.9454978,Villa Rica High School
32.4237554,-84.9454861,Baker Village School
32.4595874,-84.9446532,Carver High School
32.4551432,-84.9438198,Tillinghurst Elementary School
32.1801525,-84.9438168,Orletta School (historical)
34.8964666,-84.9430006,Varnell School
33.6785284,-84.9429587,Ithica Elementary School
32.5015303,-84.9415981,Columbus College
34.8623006,-84.9413336,North Whitfield High School
31.3743422,-84.9413145,Early County High School
33.3451167,-84.9410495,Dents School (historical)
31.1455,-84.9409,Springfield School (historical)
31.3760087,-84.9407588,Early County Middle School
34.3708779,-84.9403388,Adairsville Elementary School
32.4304218,-84.9388194,Muscogee Elementary School
34.3689793,-84.9385621,Adairsville Middle School
33.6921267,-84.9383839,Bay Springs Middle School
34.3684196,-84.9382789,Adairsville Middle School
34.3684243,-84.9377205,Adairsville Middle School
34.3721,-84.9372,Living Way Christian
32.4037561,-84.9368745,William H Spencer High School
34.5103646,-84.9366094,Eastside Elementary School
34.7311921,-84.9363326,Southeast Whitfield County High School
32.5381957,-84.9354871,Blanchard Elementary School
34.4929439,-84.935489,Calhoun Elementary
32.4840309,-84.9346533,Saint Ann School
34.7406364,-84.9343881,Antioch School
32.4140335,-84.9340969,Benning Hill School
32.4831977,-84.93382,School of the Holy Family
32.4826421,-84.9335422,Pacelli High School
31.3754533,-84.9332586,Early-Miller Training Center
32.4912529,-84.9329868,Hallie Turner School
32.4023673,-84.9327078,Frank Lloyd Elementary School
32.4295885,-84.9310415,Cusseta Road Elementary School
34.7648025,-84.9299437,Union Point School (historical)
34.1463027,-84.9289305,Woodland Middle School at Euharlee
31.3926751,-84.9282584,Early County Elementary School
34.1500675,-84.9282438,Euharlee Elementary School
34.7450807,-84.9279991,East Brook High School
32.5034746,-84.9279869,Gentian Elementary School
34.7586915,-84.9271658,East Side School
32.4845864,-84.9265977,Edgewood Elementary School
33.7345458,-84.9263298,Villa Rica Elementary School
30.9007434,-84.9257582,Holy Neck School
33.6728866,-84.9249411,Flat Rock School (historical)
31.3035109,-84.9249253,Byron School (historical)
32.9056841,-84.9243782,Oak Grove School (historical)
34.5199763,-84.9238761,Ashworth Middle School
33.1692881,-84.9224362,West End School
34.5174587,-84.9221509,Gordon Central High School
34.5151885,-84.9220994,Gordon County School System Central Office
32.3954231,-84.9213186,Morris R McBride Elementary School
32.4545875,-84.9210416,Dimon Elementary School
32.4431991,-84.9199303,Saint Marys Elementary School
32.5248627,-84.9196534,Morningside Elementary School
33.4051152,-84.9182718,Mount Carmel School (historical)
32.4684758,-84.9179863,Eastway School
33.3809491,-84.9171604,Providence School (historical)
33.4970571,-84.9171617,Whitesburg Elementary School
32.4679204,-84.916875,Rothschild Junior High School
34.3398068,-84.9168641,Adairsville High School
33.320673,-84.9160486,Corner Branch School (historical)
33.3253951,-84.9157709,Smyrna School (historical)
34.4570329,-84.9152197,Belwood School
32.0232124,-84.9140928,Oak Grove School (historical)
33.7273261,-84.9132982,Glandson-Hindsman Elementary (was Villa Rica Primary School)
34.4237006,-84.9132752,Spring Hill School (historical)
32.5015302,-84.9107643,Reese Road Elementary School
32.5584726,-84.9099312,William Henry Shaw High School
34.3317589,-84.909664,Stoners School (historical)
33.1695658,-84.9093802,Hogansville High School
32.4451434,-84.9065969,Saint James School
33.176788,-84.904658,T Eugene Crocker Primary School
34.4561997,-84.9021637,Blackwood School (historical)
32.8440193,-84.899377,Old Hopewell School (historical)
31.1204604,-84.8988138,McCormick School (historical)
31.2362908,-84.8985357,Griggs School (historical)
32.4881973,-84.8979863,Fort Junior High School
33.5320564,-84.8966059,Mount Airey School (historical)
33.8106613,-84.894941,New Georgia Elementary School
32.4773643,-84.8935415,Wesley Heights Elementary School
34.5578636,-84.892997,Rowland Hill School (historical)
32.1457092,-84.8929819,Athens Hill School
31.4529515,-84.8927016,Colomokee School (historical)
32.0671001,-84.892148,Providence School (historical)
32.0637668,-84.8918702,Bluff Springs School
33.0381806,-84.891323,Mount Pleasant School
33.3903934,-84.8888265,Western High School
32.4659758,-84.8879858,Georgetown Elementary School
32.4676424,-84.887708,Kendrick High School
31.158515,-84.8871466,Spooners School (historical)
34.6270284,-84.8866083,Union Grove School (historical)
30.8285227,-84.8860341,Fairchild School (historical)
32.5209738,-84.8843751,Waddell Elementary School
34.9589657,-84.8827212,Tuckers School (historical)
30.9479646,-84.8827019,Griselda School
32.4873638,-84.8815971,Forrest Road School
33.2851184,-84.8813252,New Hope School (historical)
31.0324071,-84.8810356,Seminole County Senior High School
31.0510177,-84.8807578,Southeastern Holiness Institute
31.0357404,-84.8799245,Seminole County Elementary School
34.1617636,-84.8796633,Mission Road Elementary School
34.4992541,-84.8791074,Cat Den School (historical)
33.3315061,-84.87827,Wesley School (historical)
34.8203573,-84.8774423,Dawnville School
32.7640216,-84.8765979,Harris County Middle School
33.43817,-84.8735487,Arnco-Sargent School
32.5168073,-84.8735416,Quick Start Vocational School
32.7581885,-84.8718755,Park Elementary School
31.0437957,-84.8707574,Seminole County Primary School
33.4484474,-84.8702155,Farmers School (historical)
32.667358,-84.869653,Cataula School
34.2798161,-84.8688293,Pettit School (historical)
32.750411,-84.8688198,Harris County High School
34.8800784,-84.8685535,Deep Spring School (historical)
31.5201719,-84.8679786,Bluffton High School (historical)
33.5228901,-84.8674383,New Watson School (historical)
31.5232274,-84.867423,County School Number 2
34.2392617,-84.8657736,Hamilton Crossing Elementary School
34.2409283,-84.8654959,Hamilton Crossing School
34.5798076,-84.8632738,Pine Chapel School (historical)
32.4684756,-84.862152,Midway School (historical)
32.0076572,-84.8618691,Green Grove School
31.1979587,-84.8602012,Porto Rico School (historical)
32.8609634,-84.859376,Dunbar School
34.2423172,-84.8541066,Cass Middle School
32.6556918,-84.8540971,Clowers School (historical)
34.4084235,-84.8535509,Plainview School (historical)
32.8679078,-84.8529871,Chipley School
31.3526769,-84.852145,Saint Johns School (historical)
33.3534499,-84.8518806,Huggin School (historical)
30.8507445,-84.851589,F D R School (historical)
31.2276803,-84.8515898,Kaney Head School (historical)
33.6178881,-84.8482716,South Douglas Elementary School
33.5281678,-84.8474377,Rock Spring School (historical)
34.918411,-84.8471641,Beaverdale School (historical)
32.0718223,-84.8471469,Greater New Hope School (historical)
31.5887808,-84.8471447,Oakland School (historical)
33.616777,-84.8460493,Fairplay School
33.9273251,-84.8454957,Hershel Jones Junior High School
34.7064711,-84.844385,Hooker School (historical)
34.9620213,-84.8443865,Mount Pleasant School (historical)
32.5573614,-84.8410412,Lynch Road School
31.4737847,-84.8410333,Spring Creek School (historical)
33.3585,-84.8406,Smokey Road Middle School
34.2973157,-84.8402171,Oakdale School (historical)
34.5300868,-84.8393839,Redbud School
31.970436,-84.8393683,Robinson School (historical)
33.2328976,-84.8391014,Grantville Brown School
31.6573896,-84.8357556,Tigner School (historical)
33.7853081,-84.8353039,Connie Dugan Elementary School
34.6598057,-84.8346622,Chatsworth Christian Academy
33.8920482,-84.8332727,Paulding County High School
33.7854793,-84.8331839,South Paulding High School
33.9159365,-84.8321618,Dallas Elementary School
33.910659,-84.8316062,Matthews School
34.4493355,-84.8312132,Sonoraville Middle School
34.6611946,-84.831051,Casey Springs School (historical)
33.8041388,-84.8303944,Austin Middle School
33.3742828,-84.829658,Westside School
34.4532494,-84.8294022,Sonoraville Elementary School
34.5317536,-84.8291058,Pine Grove School (historical)
32.0298789,-84.8285351,Stewart-Quitman High School
34.4494983,-84.8283722,Sonoraville High School
31.6682226,-84.8276999,Mobley School (historical)
33.2353975,-84.8268788,Grantville High School
34.5011988,-84.8266056,Star Institute
33.9076,-84.8255,Chattahoochee Technical Institute
32.1682089,-84.8238135,Louvale School
33.3901157,-84.8193801,O P Evans Middle School
34.8481348,-84.8188295,Sumach School (historical)
33.7278858,-84.8182713,Winston School
34.1814856,-84.8182721,Atco Public School (historical)
33.3731718,-84.8168799,Hill School
34.2267623,-84.8166053,Cass High School
30.7307467,-84.8149203,Dell School
34.7548034,-84.8138288,Spring Place Elementary School
31.3635102,-84.8135327,Liberty Hill School (historical)
30.9526868,-84.8121441,Rock Pond School
31.1524046,-84.8118663,Newberry School (historical)
34.825913,-84.8110513,Franklin School (historical)
31.2607354,-84.810755,New Hope School (historical)
33.3645608,-84.8104908,Newnan High School
34.1498197,-84.8102165,Cartersville Elementary School
34.2792609,-84.8099383,Five Forks School (historical)
34.9581327,-84.8082742,Oak Grove School (historical)
34.6981382,-84.8077172,Center Hill School (historical)
33.3831715,-84.8074353,Elm Street School
34.1734302,-84.8074385,Cartersville Middle School
34.1496,-84.8069,Excel Christian Academy
33.6739981,-84.8057706,Bill Arp Elementary School
34.1648193,-84.8052163,Cartersville Grade School (historical)
31.29379,-84.8051993,Glendale School (historical)
33.3381,-84.8028,Jefferson Parkway Elementary School
32.0537673,-84.8013123,Dowd School
33.3806716,-84.8007684,Newnan Hospital (historical)
33.3781717,-84.8004907,Newnan Junior High School
34.198152,-84.8002159,Cloverleaf School
33.3665053,-84.7996571,Atkinson School
34.8764677,-84.7979957,Northwest School
31.7751636,-84.7971438,Randolph Elementary School
32.2543179,-84.7971466,Providence School (historical)
33.4231706,-84.7966021,Northside School
31.7759969,-84.7965883,Randolph Middle School
31.5648931,-84.7951987,Jonesville School (historical)
34.1720414,-84.7949381,Douglas Street Grade School (historical)
33.4798357,-84.794658,Happy Valley School (historical)
31.7723859,-84.7946437,Andrew College
31.7604418,-84.7940882,Randolph-Clay High School
33.3701163,-84.7929904,Warner School
34.7339707,-84.7910501,Oakland School (historical)
33.681498,-84.7904924,Alexander Comprehensive High School
34.1700971,-84.7904935,Cartersville High School
33.9598245,-84.7893828,W C Abney Elementary School
34.7770253,-84.7888281,Murray County High School
34.7773031,-84.7888281,Murray County High School
31.679889,-84.7882543,Saint Lukes School (historical)
34.6223069,-84.7874383,East Point School (historical)
33.659554,-84.7863255,The Kings Way School
31.0932395,-84.7860323,Twilight School (historical)
33.3645608,-84.7832678,Central High School
34.9425775,-84.7827178,Colvard School (historical)
33.3603944,-84.7816011,Fairmount School
33.3301173,-84.7816008,Summer Hill School (historical)
34.7798031,-84.7799389,Murray Junior High School
34.360092,-84.7791039,Rock Creek School (historical)
34.4478673,-84.7788261,Donaldson School (historical)
32.0076573,-84.7777004,Humber School (historical)
34.7681367,-84.777161,Chatsworth Elementary School
33.8292724,-84.7749371,P B Ritch Junior High School
32.0126572,-84.7749226,Ben Daniel School (historical)
32.3043158,-84.7724248,Chattahoochee County Education Center
33.8770995,-84.7710163,Hiram High School
33.4228928,-84.7699346,Bible School
33.5103907,-84.7696575,County Line School (historical)
31.3074011,-84.7688092,Oak Grove School (historical)
33.2842852,-84.7685445,Moreland School
33.6820536,-84.7654916,Dorsett Shoals Elementary School
33.9039927,-84.7632705,Maybelline McGarity Elementary School
33.8595,-84.7627,Sam Panter Elementary School
34.7073049,-84.7616046,Lower Oak Grove School (historical)
31.1426829,-84.7599202,Kimbrel School (historical)
33.4284482,-84.7585455,Heritage School
34.8259133,-84.7585496,Eton Elementary School
34.8259133,-84.7585496,Eton High School (historical)
34.1248205,-84.7579926,Emerson School
34.9011895,-84.7579945,Halls Chapel School (historical)
32.1754311,-84.7579785,Walnut Grove School (historical)
34.0113,-84.7565,Floyd L Shelton Elementary School at Crossroad
34.6342513,-84.7554929,Sugar Creek School (historical)
33.8795488,-84.7535478,Hiram Elementary School
33.712053,-84.7524357,Arbor Station Elementary School
33.7487189,-84.7513248,Douglasville School (historical)
32.1026551,-84.7510335,Pleasant Valley School
33.4353926,-84.7507675,Madras School
32.2559846,-84.7499232,Friendship School
33.8335,-84.7497,J A Dobbins Middle School
32.6834689,-84.7493723,Laney School
32.2201523,-84.7482562,Green Hill School (historical)
33.9392696,-84.7474369,East Paulding Middle High School
33.7578854,-84.7468802,John W Stewart Middle School
34.2820388,-84.7457693,White School
32.3623688,-84.7440922,Kingsville School (historical)
33.7431635,-84.7435468,Douglas County Comprehensive High School
33.8341,-84.7426,JA  Dobbins Middle School
31.2446252,-84.7399195,Hardy School (historical)
32.6848579,-84.7354831,Waverly Hall Elementary School
33.2073429,-84.7352096,Luthersville Elementary School
34.6961943,-84.7332702,Ramhurst Graded School (historical)
32.1457099,-84.7329778,Pine Grove School (historical)
31.4401754,-84.7326968,Arlington Elementary School
30.9751865,-84.7321416,Oak Academy
34.2967607,-84.73188,Hickory Log Vocational School
34.3425927,-84.7313245,Pine Log School
31.1676825,-84.7313082,Miller County High School
33.7548298,-84.7293799,L W Burnett Elementary School
31.563227,-84.7276969,Calhoun County High School
33.7551076,-84.7274354,Eastside Elementary School
32.0315459,-84.7274215,Horton School (historical)
31.1699046,-84.7260302,Miller County Junior High School
31.1704602,-84.7254747,Miller County Elementary School
31.3051792,-84.7251968,Southwest Georgia Academy
34.5070325,-84.7249354,Liberty School (historical)
32.4706975,-84.7238163,Favorsville School (historical)
31.4418421,-84.7196408,Calhoun County Elementary School
31.9865472,-84.7176988,Pataula School (historical)
33.0179043,-84.7174292,Greenville Elementary School
33.6959422,-84.7171571,Chapel Hill Middle School
33.6967756,-84.7171571,Chapel Hill Elementary School
33.8342,-84.7147,Youth Christian School
31.2626804,-84.7138076,Gordon School (historical)
33.8529,-84.7127,TLC Christian School
34.5670311,-84.7107686,Oakman School (historical)
33.2717857,-84.7099317,Whiteoak School (historical)
33.0284595,-84.7096513,Greenville High School
31.6101698,-84.7088078,Manry School (historical)
32.9576283,-84.707984,Union Hill School (historical)
34.1434311,-84.7046577,Bethany School (historical)
31.2418476,-84.7043628,Jeterville School (historical)
32.5481951,-84.704094,Crossroads School
33.7745514,-84.7035462,Beulah Elementary School
33.7798291,-84.7029907,Beulah School
34.8031366,-84.7013251,Cool Spring School (historical)
33.3906,-84.7009,Arnall Middle School
32.4095893,-84.6999254,Pine Knot School (historical)
33.3501,-84.6976,Poplar Road Elementary School
33.7356636,-84.6968791,Chestnut Log Middle School
34.4398153,-84.6968796,Fairmount Elementary School
34.0259,-84.6965,Durham Middle School
33.2570638,-84.6957645,Callum School (historical)
34.0326004,-84.6952137,Christ Our Savior Lutheran School
33.9709,-84.6941,Lost Mountain Middle School
33.8941834,-84.6923692,Varner School
34.3417595,-84.6918788,Oak Hill School (historical)
33.9766,-84.6869,Dominion Chrisitan High School
31.2151815,-84.6865846,Pine Hill School (historical)
33.6239994,-84.6835448,Cedar Grove School
33.7409411,-84.6827123,Mount Carmel School
32.0282133,-84.6826982,Hesters School (historical)
34.064544,-84.6816021,Acworth School
34.0675996,-84.6810464,Acworth Christian School
34.1195427,-84.6804906,Rock Hill School (historical)
32.8867971,-84.6804826,Warm Springs Elementary School
31.2335144,-84.6804733,Harmony School (historical)
33.8953817,-84.6796574,John McEachern High School
33.8953817,-84.6791019,John McEachern School
33.8706601,-84.677435,Compton Elementary School
33.8564938,-84.6763239,Powder Springs Elementary School
34.4762004,-84.6760448,Bobo School (historical)
34.014823,-84.6735466,Lewis School
33.3876162,-84.6735428,Longstreet School (historical)
34.419813,-84.6729893,Forest Hill School (historical)
33.3840052,-84.6721538,Ebenezer School (historical)
33.5306682,-84.6713216,Palmetto High School
31.1335166,-84.6710286,Grimes School (historical)
34.0842658,-84.6704906,North Metro Technical School
33.5251127,-84.6688215,Riley School
31.3735107,-84.6685284,Hillside School (historical)
34.3928693,-84.6677114,Salacoa School (historical)
33.8759376,-84.6674349,Tapp Middle School
33.9695463,-84.666602,Due West School
33.9328806,-84.6652129,Still School
33.2890077,-84.6640973,Blackjack School (historical)
34.0020454,-84.6621575,North Cobb Christian School
32.0912675,-84.6621424,Richland Elementary School
33.5153908,-84.661599,Palmetto Elementary School
33.7862177,-84.6613232,Lithia Springs Elementary School
33.7820511,-84.6604899,Turner Middle School
32.2587633,-84.660199,Saint Mathews School
32.553473,-84.6588148,Pine Grove Academy (historical)
33.7209415,-84.6582672,Factory Shoals Elementary School
33.7553852,-84.6582674,Lithia Springs Comprehensive High School
33.795662,-84.6571565,Annette Winn Elementary School
33.4473369,-84.6565984,Rock Springs School (historical)
31.1982375,-84.6557503,McLendon School (historical)
33.1301235,-84.6521509,Sunnyside School
33.6348324,-84.6515997,Arlington School
32.9834612,-84.6507604,Cedar Rock School (historical)
34.1019,-84.6506,Harvest Baptist School
33.8445495,-84.6502122,Clarkdale Elementary School
34.0373224,-84.6502126,North Cobb High School
33.3597,-84.6499,Willis Road Elementary School
34.0426001,-84.6485458,Awtery Middle School
33.4643,-84.6467,Cannongate Elementary School
33.8278833,-84.6438231,Garrett Middle School
34.6628626,-84.642989,Ridgeway School (historical)
33.6405,-84.6419,Arlington Christian School
30.9765756,-84.6354719,Bainbridge Air Base Contract School (historical)
33.8153836,-84.6346561,Austell Elementary School
33.9023257,-84.6346565,Dowell School
30.7357473,-84.6346377,Faceville School (historical)
33.8420997,-84.63411,Copper Middle School
33.8141,-84.6333,Cumberland Charter Area Middle School
33.9881569,-84.6329902,Pine Mountain Middle School
33.5529,-84.6277,Bear Creek Middle School
31.112406,-84.6274162,Jones-Babcock School (historical)
34.0336,-84.6273,Kennesaw Elementary School
33.4115046,-84.6238194,Liberty Hill School (historical)
33.8334,-84.6236,Cumberland Christian Academy
34.0578774,-84.6235451,Baker School
32.8581872,-84.6227029,Meriwether County Training School (historical)
33.3948384,-84.6213192,Immanuel Bible College
33.2395647,-84.6210401,Farmdale School (historical)
33.5726117,-84.6199317,Evoline C West Elementary School
32.8548539,-84.6196472,Manchester Grade School (historical)
33.92,-84.6195,Cheatham Hill Elementary School
32.8545761,-84.6190917,Manchester Public School (historical)
32.8590205,-84.6188139,Manchester High School
34.363148,-84.6179877,Garland Mountain School (historical)
32.8640204,-84.6171472,Manchester Middle School
34.4689787,-84.6165984,Ludville High School (historical)
31.7629431,-84.6165854,Randolph Southern School
34.0195449,-84.616323,Kennesaw School
33.3645614,-84.6152076,Pond View School (historical)
33.9865,-84.6152,Devereux Georgia Treament Network School
31.2243481,-84.6138047,Widners School (historical)
32.859576,-84.6129805,Manchester Elementary School
32.8556873,-84.612147,Callaway Public School (historical)
34.0962098,-84.6116001,Oak Grove School
33.8926,-84.6105,Smitha Middle School
33.8820484,-84.6102115,Hollydale School
31.977382,-84.6101963,Greenfield Academy
33.8351052,-84.6096557,South Cobb High School
31.5315622,-84.6004712,Singleton Junior High School
33.4295,-84.6,Kedron Elementary School
34.0285,-84.5998,Saint Catherine of Siena Catholic School
32.812633,-84.5996462,Valley Grove Academy (historical)
32.8773534,-84.5990914,Eberneza School (historical)
32.8906864,-84.5985359,Bethesda School (historical)
33.3051186,-84.59854,East Coweta School
33.4753919,-84.5979858,Tyrone Elementary School
34.0881545,-84.5977109,Harvest Christian Academy
33.6512209,-84.5971541,Cliftondale Elementary School
34.0270447,-84.5971558,Big Shanty School
33.4651144,-84.5971523,Crestwood Christian Academy
33.4317,-84.597,Kedron Elementary School
33.4753919,-84.5965969,Hopewell Academy (historical)
32.8829089,-84.594369,Campbell School (historical)
30.9154659,-84.5940816,West Bainbridge Middle School
33.4084492,-84.5921517,Peachtree City Elementary School
34.0234,-84.5913,Kennesaw Charter School
33.3120629,-84.590762,Standing Rock School (historical)
34.1300979,-84.5896548,Boston School
33.1437345,-84.5893715,McCrary School
33.8128836,-84.5879886,Skyview Elementary School
30.9218547,-84.5871369,West Bainbridge Elementary School
34.546477,-84.5865976,Ball Creek School (historical)
34.0360023,-84.5842513,Science Building
33.4778919,-84.5838188,Little Vine School (historical)
34.1414,-84.5837,Bascomb Elementary School
33.8242722,-84.5827107,Mableton Elementary School
31.8018313,-84.582696,Lay School (historical)
34.0372929,-84.5819909,Recreation Center
33.8064948,-84.5818773,Pebblebrook High School
33.5142,-84.5815,Our Lady of Victory Catholic School
33.5645563,-84.5810418,Campbell High School
34.6228641,-84.5807643,Oak Hill School (historical)
33.264842,-84.5793725,Eastside School
33.5603898,-84.579375,Fairburn Elementary School
33.6914977,-84.5790987,Westlake High School
33.9431579,-84.5782665,Burruss School
33.8953814,-84.5774331,Milford School
33.9473244,-84.5774332,Al Burruss School
32.9856839,-84.5771474,Woodbury Elementary School
33.7887175,-84.5754883,Mableton Christian Academy
33.8376051,-84.5752106,Floyd Middle School
33.8798262,-84.5752108,Birney School
32.9751286,-84.5752028,Woodbury High School
33.5726117,-84.5749306,Word School
30.8996329,-84.5749143,Potter Street Elementary School
34.7153619,-84.5746535,Seventh Day Adventist School
30.8838,-84.5746364,John Johnson School
34.0310118,-84.5741633,KSU Continuing Education
30.9004663,-84.5740809,Bainbridge Junior High School (historical)
33.8101,-84.5725,Apostolic Christian Training Center
30.9043551,-84.5724142,Bainbridge Male and Female Academy (historical)
31.6451696,-84.5724166,Terrell School (historical)
33.4948,-84.5719,Sandy Creek High School
32.9920725,-84.5718695,Flint River Academy
33.4954,-84.5714,Flat Rock Middle School
33.4951,-84.571,Sandy Creek High School
33.4948,-84.5708,Robert Burch Elementary School
33.8991,-84.5704,In His Image Christian Academy
34.0302053,-84.5699948,KSU Owls Nest
33.3862277,-84.5696509,Huddleston Elementary School
33.4017828,-84.5696511,J C Booth Junior High School
33.4951,-84.5696,Robert J Burch Elementary School
33.8584378,-84.5693772,Russell Elementary School
33.4951,-84.5693,Flat Rock Middle School
34.0519683,-84.5688242,Palmer Middle School
33.8999,-84.5683,Cobb County Christian School
33.7884397,-84.5682658,Riverside School
30.8940776,-84.5682473,Elcan-King School
33.8587156,-84.5671549,Covered Bridge School
32.5751398,-84.5671453,Geneva School
33.2553979,-84.5663165,Nixon Grove School (historical)
33.8923258,-84.5654884,Osborn High School
34.1159315,-84.5649321,Etowah High School
33.9370468,-84.5638218,Hickory Hills School
33.984,-84.5632,Carmen Adventist School
33.9564908,-84.5629886,West Side School
33.4170601,-84.5629844,McIntosh High School
34.7495278,-84.5629866,Mountaintown School (historical)
34.7592499,-84.5629866,Henry Grady School
34.1164871,-84.5618764,Booth Middle School
33.7053863,-84.5613207,Sandtown School
34.1137093,-84.5613209,Chapman School
31.339623,-84.5613031,Baker Academy
34.0452642,-84.5611998,Chalker Elementary School
34.7114732,-84.5604863,Pleasant Gap School (historical)
32.7854118,-84.5604783,Woodland Academy
32.7854118,-84.5604783,Woodland School (historical)
30.9012997,-84.559636,Christian School Number 1
30.9087995,-84.559636,Hutto Junior High School
33.8103836,-84.5577102,Harmony-Leland School
33.9539909,-84.5577106,Winn Street School
33.9548241,-84.5577106,Marietta High School
30.8985219,-84.5565804,Bainbridge High School
30.9010219,-84.5565804,Christian School Number 2
34.1737,-84.5552,Sixes Elementary School
30.9049107,-84.5551915,Jones Wheat School
33.5842781,-84.5540969,Union City Elementary School
33.8962146,-84.5540993,La Belle School
34.3187047,-84.5538191,Reinhard College
32.7756899,-84.5535335,Woodall School
33.9656572,-84.5524327,Saint Joseph School
34.0562106,-84.5524323,Shiloh Hills Christian School
33.6012221,-84.5518747,Stonewall Elementary School
33.975657,-84.5510438,Elizabeth District School (historical)
33.5729,-84.5509,Southeastern Christian School
33.8798261,-84.5502102,Norton Park School
34.5773099,-84.5499297,Mount Pisgah School (historical)
34.3167604,-84.5496523,Moore School
33.3933,-84.5495,Braelinn Elementary School
32.675415,-84.5493667,Talbot County High School (historical)
32.6756927,-84.5488111,Talbotton School
32.5818065,-84.5485337,Box Spring School
34.0159337,-84.5477104,Bells Ferry School
33.9506576,-84.546877,Cobb County Vocational School
33.9548241,-84.546877,Keith School
33.9478799,-84.5465993,Waterman Street School
33.9178807,-84.5463214,Fair Oaks School
33.9481577,-84.5463215,Waterman Street Public School (historical)
33.9153807,-84.5460436,Osborne School
32.8295772,-84.5460338,Franklin Academy (historical)
33.9142697,-84.5457658,Oak Wood High School
33.3803946,-84.5443724,Oak Grove Elementary School
33.9548241,-84.5427103,Lemon Street High School
32.6904146,-84.542422,Carter School
33.9548241,-84.5418769,Lemon Street Grade School
34.5345331,-84.5404848,Town Creek School (historical)
33.9626017,-84.5399325,Allgood School
33.6276104,-84.5388192,Seaborn Lee Elementary School
32.6748594,-84.5388109,Le Vert College (historical)
32.6795815,-84.5388108,Washington Academy (historical)
33.5882,-84.538,Gullatt Elementary School
33.5881669,-84.5377076,C H Gullatt Elementary School
33.7531628,-84.537154,Atlanta Youth Development Center
33.9701015,-84.5371546,Sprayberry High School
33.7012196,-84.5363201,Thomas Oliver School
33.8917702,-84.5360433,Belmont Hills School
33.9695459,-84.5360435,The Walker School
32.9306857,-84.5349235,Alford School (historical)
30.8990776,-84.5338019,Bainbridge Junior College
32.0657142,-84.5332502,Webster County Elementary School
33.9487131,-84.5327101,Park Street School
34.0220446,-84.53271,Daniell Middle School
33.7012196,-84.5307644,Ralph Bunche Middle School
34.6848074,-84.5296517,Pleasant Grove School (historical)
34.6075871,-84.5282624,Southwestern School
30.7196373,-84.5282454,Oak Grove School (historical)
33.6367768,-84.5279858,Camp Creek Middle School
33.8742707,-84.5268763,Brown Elementary School
33.957324,-84.5268766,Lockheed School
34.0364887,-84.5265986,Blackwells School
33.8881592,-84.5260431,Wills High School
34.0524,-84.5259,Noonday Academy
33.7559404,-84.5254872,Lenora P Miles Elementary School
33.8978812,-84.5254876,Nash Middle School
33.9442688,-84.5252099,Pine Forest School
33.343,-84.524,Starrs Mill High School
33.4456707,-84.523539,Flat Rock School (historical)
33.9487131,-84.5235432,Dodd Street School
33.8548267,-84.5229874,King Springs Elementary School
33.224288,-84.5227039,Hutchinson School (historical)
33.343,-84.5226,Rising Starr Middle School
33.7197222,-84.5216667,Achieve Academy of Atlanta
33.8564933,-84.5207651,Griffin Middle School
34.2159292,-84.5204855,Teasley Middle School
33.5898335,-84.5199294,South Fulton Vocational Center
33.7145526,-84.519931,West Atlanta Elementary School
33.7270522,-84.5193756,Utoy Springs School
33.9398244,-84.5193764,Southern Technical Institute
33.3425,-84.5189,Peeples Elementary School
31.7696104,-84.5185286,Terrell Academy
33.5931668,-84.5174294,Benjamin E Banneker High School
34.1039872,-84.517431,Woodstock Elementary School
33.7261,-84.5174,Cascade Adventist Elementary School
31.8907187,-84.5168612,Parrott School (historical)
33.8441,-84.5168,Nickajack Elementary School
33.6973308,-84.5165974,Fickett Elementary School
33.7254,-84.5163,Cascade Adventist Academy
33.8821,-84.516,First Baptist Weekday Preschool
33.6918,-84.5157,Southwest Atlanta Christian Academy
33.692,-84.5153,Southwest Atlanta Christian Academy
33.725,-84.5147,Atlanta Adventist Academy
33.6901088,-84.5146528,Ben Hill Elementary School
33.9334357,-84.514654,Life Chiropractic College
34.0659,-84.5139,Kell High School
33.7548293,-84.5138203,Adamsville Elementary School
31.652392,-84.5118601,Cherry Hill School
33.3190075,-84.5107599,Hartford School (historical)
34.0009339,-84.5104875,Kincaid School
33.8184387,-84.5096537,Lindley Middle School
33.7223,-84.5079,Romer Academy
33.6909,-84.5067,Believers Bible Christian Academy
33.8909368,-84.5063205,Hawthorne School
34.0470439,-84.5049313,McCleskey Middle School
34.0514884,-84.5049312,Nicholson School
32.9167973,-84.5049226,Pleasant Valley School (historical)
34.1899,-84.5049,Rehobeth Christian Academy
33.7759398,-84.5046535,George A Towns Elementary School
32.9965173,-84.5040901,White Plains School (historical)
34.1773189,-84.5040965,Holly Springs Elementary School
33.5765006,-84.5038177,S L Lewis Elementary School
33.733441,-84.5035421,Mays High School
33.9809344,-84.5024317,Mount Paran Christian School
34.2364843,-84.501318,Cherokee County High School
33.7939949,-84.4990979,Alfred Blalock Elementary School
33.7695511,-84.49882,Charles Lincoln Harper-Samuel Howard Archer Middle School
34.0855,-84.4983,Cherokee Christian School
33.6276103,-84.4982627,Eastern School
33.887048,-84.4982647,Rose Garden School
33.7562181,-84.4977088,Margaret Fain Elementary School
34.011767,-84.4971536,Sprayberry High School
33.8717707,-84.4968757,Campbell High School
33.1245688,-84.4965912,Pedenville School (historical)
34.6756413,-84.4960393,Gilmer High School
33.6464987,-84.4957629,Brookview Elementary School
33.7691,-84.4947,Imhotep Center of Education
33.9426021,-84.4943757,Powers Ferry Road School
33.7726066,-84.4940976,Harwell Road Elementary School
33.7725,-84.4938889,Basoline E Usher Elementary School
33.7867729,-84.4938199,Mayson School
34.0589882,-84.4935419,Keheley School
34.1312088,-84.4932633,Johnston Elementary School
33.8459379,-84.4927088,Lee School
34.2359287,-84.4927067,Canton Grammar School (historical)
34.2387065,-84.4927066,Riverdale School (historical)
31.3546229,-84.4924123,New Salem School (historical)
34.235651,-84.492151,Canton High School (historical)
33.6787201,-84.4915965,Continental Colony Elementary School
34.0226,-84.4902088,Addison School
32.9737402,-84.4902007,Thunder School (historical)
31.5915608,-84.4901919,Cordray School (historical)
33.7020528,-84.4899301,Kimberly Elementary School
33.7322222,-84.4897222,Jean Childs Young Middle School
33.7398296,-84.4896528,West Manor Elementary School
34.769528,-84.4896503,Flat Branch School (historical)
33.6988889,-84.4894444,Daniel McLaughlin Therrell High School
33.7328854,-84.4893749,Southwest Middle School
32.2107112,-84.4893613,Tri-County High School
34.2601,-84.4893,Ralph Bunche Center
33.6989974,-84.4890967,Thorrell High School
34.0168,-84.489,Pathways Academy
34.3317601,-84.488817,Clayton School
33.7642735,-84.4885418,Collier Heights Elementary School
34.2598171,-84.4885396,Bunche School
33.9459353,-84.4874311,Sedalia Park Elementary School
33.8648263,-84.4857641,Teasley Elementary School
34.2506507,-84.4852063,Tippens School
33.8826036,-84.4835419,Argyle Elementary School
33.594,-84.4824284,Collins High School
34.2342621,-84.4818729,Canton Public School (historical)
33.6420543,-84.4815957,Lake Shore High School
33.5928889,-84.4813173,Laurel Hills School
33.6695536,-84.4810405,Blairwood High School
33.5720561,-84.4807614,Love T Nolan Elementary School
34.4028698,-84.4796496,Indian Pine School (historical)
34.6964743,-84.4796497,Ellijay Middle School
33.4502,-84.4795,Joseph Sams School
34.6964743,-84.4793719,Ellijay Elementary School
34.0731545,-84.4790968,Davis Elementary School
33.9598238,-84.4788197,Wheeler High School
34.0470439,-84.4785414,Rocky Mount School
33.5868,-84.4784,Little Peoples Learning Center
33.6645537,-84.4782625,Mount Olive Elementary School
33.8087166,-84.4777082,Chattahoochee Elementary School
33.8811,-84.4775,Atlanta Classical Christian Academy
33.7851061,-84.4774303,A D Williams Elementary School
33.9420464,-84.4774307,East Valley Elementary School
34.0337109,-84.4774304,Simpson Middle School
31.6512812,-84.477415,Laing School (historical)
30.752137,-84.4771329,Lillian E Williams Elementary School
34.6964743,-84.4768718,Ellijay Primary School
33.610944,-84.4765952,The Meadows Elementary School
33.9603793,-84.4765974,East Cobb Middle School
33.7473293,-84.4763191,Peyton Forest Elementary School
33.6853865,-84.4760405,Dodson Drive Elementary School
33.6851087,-84.4757627,Atlanta Christian College
34.6842524,-84.4754829,East Ellijay Elementary School
34.8920257,-84.4754827,Hipp School
33.5901112,-84.4746503,Old National Christian School
33.6764978,-84.4738181,Oak Knoll Elementary School
34.0423218,-84.4735413,Lassiter High School
34.1062093,-84.4729851,Little River Elementary School
34.9206364,-84.4729825,Ritchie School
33.5966,-84.4726,World Changes Christian Academy
34.4778683,-84.4721489,Philadelphia School (historical)
33.3895607,-84.471593,Whitewater Middle School
33.7853839,-84.471319,Carey School
32.7043037,-84.4713091,Centerville School (historical)
33.5120576,-84.4707604,North Fayette Elementary School
34.1202,-84.4706,Cherokee Christian School
34.0598214,-84.4702077,Mabry Middle School
33.6481653,-84.4702065,Kathleen Mitchell Elementary School
33.8023278,-84.4696523,William J Scott Elementary School
33.4870582,-84.4690935,Fayetteville Christian School
33.9198248,-84.469097,Brumby Elementary School
33.76094,-84.4677077,Frederick Douglass High School
31.6635031,-84.4676928,Hopewell School (historical)
33.4426149,-84.4674265,Fayette County Junior High School
33.6944,-84.4661,Hamilton E Holmes Elementary School
33.69,-84.466,Paul D West Middle School
33.6898307,-84.4657624,Headland High School
33.4559478,-84.4652043,Hood Avenue Elementary School
33.9214,-84.4651,Shreiner Academy
33.7773285,-84.4649298,Center Hill School
33.4845582,-84.4649267,Robinson School (historical)
33.71733,-84.4646516,Cascade Elementary School
33.7226,-84.4636,Nsoromma School
32.8831874,-84.4635325,Smith Academy (historical)
33.4559478,-84.4632598,Fayetteville Elementary School
33.7356629,-84.4632628,Beecher Hills Elementary School
33.4557,-84.463,Fayette Intermediate Elementary School
34.0348219,-84.4627077,Mountain View School
33.4557,-84.4627,Fayetteville Intermediate School
33.6562205,-84.4618729,Beaver School
34.006767,-84.4618745,Murdock School
33.8048277,-84.4615965,Archer High School
33.1570672,-84.4615911,Fairfield School (historical)
33.2917852,-84.4607589,Brooks Elementary School
34.9425804,-84.4607596,Dunn School (historical)
33.7231633,-84.4602071,Philadelphia School
33.8034389,-84.4602075,C M Pitts Elementary School
31.0237971,-84.4601887,Mount Pleasant School (historical)
32.8012454,-84.4599204,Flint River School (historical)
33.6476096,-84.459095,Newton Estates School
33.7459404,-84.4590962,Rosalie Wright Elementary School
33.6514984,-84.4588173,Avery School
33.3470615,-84.4588148,Mount Springs School (historical)
33.4512257,-84.4588153,Fayette County High Schools
33.680942,-84.4579843,Christ Christian School
31.8818309,-84.4571377,Beulah School (historical)
33.6553872,-84.4568728,College Park Elementary School
33.6848308,-84.4565954,Conley Hills School
33.4453925,-84.4549262,Fayetteville Grade School (historical)
33.4456703,-84.4549262,Fayetteville Academy (historical)
33.6642758,-84.4543728,Longino School
33.7592734,-84.4543738,University Community Academy
33.9356577,-84.453263,Sope Creek Elementary School
33.3959491,-84.4529816,Little Flock School (historical)
34.0239888,-84.4527074,Pope High School
33.4899,-84.4516,Fayette Christian School
33.4887248,-84.451593,Fayetteville Christian Academy
34.8328605,-84.4515928,Cashes Valley School (historical)
32.9367969,-84.4513106,Crest School (historical)
34.9742466,-84.4513148,Payne School
33.6564982,-84.4504837,College Park High School
33.7562178,-84.4504848,Henry McNeal Turner Middle School
33.6566,-84.4501,McClarin Alternative School
33.1656778,-84.4496465,Shoal Creek School (historical)
33.7142745,-84.449651,Venetian Hills Elementary School
33.7859392,-84.4490959,William M Boyd Elementary School
33.7662176,-84.4485403,Walter F White Elementary School
33.6064995,-84.4479831,Northcut School
33.6048328,-84.4477053,North Clayton Junior High School
33.5505,-84.4477,Solid Rock Academy
33.7734396,-84.4468735,Benjamin S Carson Honors Preparatory School
33.5778891,-84.446316,Olive School
33.6817753,-84.4463172,Central Park School
33.6606648,-84.4457613,Saint Johns Episcopal School
34.3520375,-84.4457598,Riverdale School (historical)
34.7673062,-84.4457592,Boardtown School (historical)
33.9909339,-84.4452073,Dodgen Middle School
33.6767755,-84.4449282,Church Street School
33.6751088,-84.4440948,Pathway Christian School
33.4478923,-84.4438149,East Fayette Elementary School
31.7879443,-84.4435269,Lillie Cooper School
33.6628869,-84.4421501,Woodward Academy
33.75344,-84.4421511,F L Stanton Elementary School
33.7709396,-84.4421511,Grove Park Elementary School
33.6626091,-84.4418723,Georgia Military Academy (historical)
31.7190572,-84.4415822,Mountain Grove School (historical)
31.7671114,-84.4415826,Carver School
33.7608333,-84.4413889,School for Integrated Academics and Technologies
33.3212284,-84.4413144,Longino School (historical)
33.9898228,-84.4407626,Walton High School
33.8023277,-84.4404845,Mount Vernon School
33.7323295,-84.4399286,Connally Elementary School
33.7723284,-84.4399289,Carter G Woodson Elementary School
33.6095549,-84.4396495,North Clayton High School
33.6559426,-84.4393722,Samuel R Young School
31.7673893,-84.4390825,Carver Junior High School
34.1099,-84.4389,Arnold Mill Elementary School
33.7209409,-84.4385395,Arkwright Elementary School
34.0154,-84.438,Hightower Trail Middle School
33.7603843,-84.4377066,Clement School
33.9767677,-84.437707,East Side School
33.6853863,-84.437428,Tri-Cities High School
34.0350996,-84.4374289,Shallowford Falls School
34.0331,-84.4371,SHallowford Falls Elementary School
30.8782454,-84.4365763,Climax Elementary School
33.7412181,-84.4357619,West Hill Child Development Center
33.1048465,-84.4357567,Pike County Middle School
31.7779447,-84.4354713,Terrell High School
34.4650909,-84.4352032,Jasper Elementary School
33.6845529,-84.4349279,Harris Street School
33.7420823,-84.4347287,KIPP STRIVE Acadmey
33.7420732,-84.4344548,J C Harris School
34.0667656,-84.4343729,Garrison Mill School
31.778778,-84.4340823,Terrell Junior High School
31.8709981,-84.4338039,Crawford Grove School (historical)
33.8320491,-84.4335398,Margaret Mitchell School
32.7812463,-84.4335308,Mount Airy School (historical)
34.4681465,-84.4332586,Pickens County High School
33.696,-84.4324,Romar Academy
34.4681465,-84.4321474,Jasper School
33.7392737,-84.4318728,Atlanta Street Academy
33.8426044,-84.4318731,Westminster School
31.7629451,-84.4315824,Terrell Academy
33.6962193,-84.4313168,Jere Wells School
34.961747,-84.431314,Mobile School (historical)
33.6034439,-84.431038,West Clayton School
33.6751087,-84.430761,South Fulton Junior High School
33.6963,-84.4307,Victory Charter Elementary School
33.536779,-84.430204,The Busey School
33.6753865,-84.4302055,Quillian-East Point Elementary School
33.9924,-84.4295,Wood Acres Country Day School
33.6757,-84.4291,KIPP Charter School
34.9217478,-84.4290917,Lebanon School
32.9148532,-84.427421,Thurston School
33.7720506,-84.4271506,Clara Muhammad School
32.893465,-84.427143,Fellowship School (historical)
34.8931373,-84.4263138,Mount Moriah School
34.471202,-84.4257583,Pickens Technical School
33.6784419,-84.4249275,Park Lane School
33.8428821,-84.4238173,Trinity School
34.1703745,-84.4235383,Hickory Flat Elementary School
33.8432,-84.4234,Atlanta Girls School
33.7220518,-84.4232612,Ragsdale School
34.4364804,-84.4232584,Harmony School (historical)
33.9640261,-84.4230506,Mount Bethel Christian Academy
33.8731592,-84.422984,Warren T Jackson Elementary School
34.1703745,-84.4229828,Dean Rusk Middle School
34.3100939,-84.4229816,Lays School
33.7487178,-84.4227059,M Agnes Jones Elementary School
33.8414,-84.4225,Atlanta Speech School
33.7431625,-84.4215947,Rusk Elementary School
33.7338889,-84.4211111,Joseph Emerson Brown Middle School
33.763162,-84.4207614,Alonzo F Herndon Elementary School
33.9176024,-84.4207617,Heards Ferry Elementary School
33.737607,-84.4202057,McClendons School of Dance
34.0173222,-84.4202062,Tritt School
33.7070522,-84.4199276,Sylvan Hills School
33.7389959,-84.4196501,Rusk Elementary School
31.9718295,-84.4196362,Mossydell School (historical)
33.4631696,-84.4193699,Gilberts School (historical)
33.7381626,-84.4193723,Saint Anthonys School
34.445647,-84.4193693,Pickens County Middle School
32.7506919,-84.4185303,Collingsworth Institute (historical)
33.7151076,-84.4179832,Sylvan Hills Middle School
33.5631672,-84.4177039,Church Street School
33.979823,-84.4177062,Mount Bethel Elementary School
33.7570509,-84.417428,KIPP West Atlanta Young Scholars Academy
33.9896,-84.4173,East Cobb Christian School
33.9176024,-84.4171505,Riverwood High School
33.9692678,-84.4171506,Dickerson Middle School
33.8298268,-84.4154836,Morris Brandon Elementary School
34.2400952,-84.4154819,Buffington Elementary School
30.9512991,-84.4151869,Parker School (historical)
33.7487178,-84.4138167,Morehouse College
33.7392736,-84.4135388,Lee Street School
33.7856613,-84.413539,Blandtown School
33.7310191,-84.4135054,Genesis Day Care
33.9082,-84.4131,Holy Innocents Episcopal School
33.6981636,-84.4124273,Perkerson Elementary School
33.7603842,-84.41215,John Fitzgerald Kennedy Middle School
33.7427,-84.412,Moorehouse School of Medicine
33.7998276,-84.4118722,Howe School
33.8774,-84.4118,Holy Spirit Preparatory School
33.5206683,-84.4115922,Pointe South Junior High School
33.8773256,-84.4115947,Mount Vernon Christian Academy
33.74844,-84.4113166,Clark College
33.5231682,-84.4113144,Pointe South Elementary School
33.6656644,-84.411038,North Avenue School
33.7706617,-84.4110389,English Avenue Elementary School
33.7262544,-84.4107706,George W. Adair
30.7629706,-84.4107414,Mount Moriah School (historical)
31.8026667,-84.4101927,Midway School (historical)
33.680664,-84.409927,Emma Hutchinson Elementary School
34.0618,-84.4089,Village Montessori School
33.7545509,-84.4088165,Interdenominational Theological Center
33.6556647,-84.4085378,College Street School
33.7551065,-84.4085387,Morris Brown College
33.778717,-84.4085388,Haygood School
33.5731669,-84.4077037,Riverdale Elementary School
33.7523287,-84.4074276,Oglethorpe Elementary School
33.7537176,-84.4074276,Atlanta University
33.5631671,-84.4068702,Riverdale Middle School
33.7064966,-84.4068715,Atlanta Junior College
33.7156631,-84.4068716,Capitol View Elementary School
33.6602,-84.4067,Hapeville Elementary School
33.8323267,-84.4065944,Northside High School
33.7267755,-84.4063245,Atlanta Theological Seminary/ Salvation Army College
33.6603914,-84.4063169,Hapeville Elementary School
33.9952,-84.4059,Timber Ridge Elementary School
33.6614978,-84.40576,Josephine Wells Elementary School
33.7551065,-84.4057608,Ware School
33.7267739,-84.4054829,Salvation Army Training College
33.7307584,-84.4054309,Charles L Gideons Elementary School
33.7117743,-84.4043715,Atlanta Area Technical School
34.8206389,-84.4043683,Harper School (historical)
34.0706544,-84.404094,Mountain Park School
33.7606619,-84.4035385,Mary McLeod Bethune Elementary School
34.1408,-84.4031,Mountain Road Elementary School
33.4253924,-84.4029806,Crossroads School (historical)
33.7056633,-84.4021492,Jeremiah Gilbert School
33.5565006,-84.40187,Riverdale High School
33.7417735,-84.4013162,Paul Laurence Dunbar Elementary School
33.772606,-84.4013163,State Street School (historical)
33.7501065,-84.4010384,Walker Street School
32.9840177,-84.4007545,Smyrna School (historical)
33.7662172,-84.4004829,Gray Street School
32.8723547,-84.4004757,Sunnyside School (historical)
33.8739923,-84.3999275,Willis Sutton Middle School
34.399259,-84.3999245,Green School (historical)
33.9286,-84.3986,Epstein School
33.6556646,-84.3985375,Saint Johns School
33.9287132,-84.3985387,Underwood Hills Elementary School
33.6901081,-84.3977045,Brewer Elementary School
33.7487177,-84.3971494,Angiers Academy (historical)
33.7487177,-84.3971494,Holland Free School (historical)
33.7439956,-84.3965938,Formwalt School
33.7250386,-84.396434,Walter Leonard Parks Middle School
33.7367736,-84.3960381,Georgia Avenue School
33.7625409,-84.3959543,Atlanta New Century School
33.7697222,-84.3955556,Centennial Place Elementary School
33.7667728,-84.3949271,Luckie Street School
33.6667754,-84.3946485,Crawford Williamson Long Middle School
33.7306882,-84.394145,Pryor Street School
32.0273842,-84.3932467,Rosenwald School (historical)
33.912,-84.3931,First Montessori School of Atlanta
33.7484398,-84.3927048,Smith-Hughes Vocational School
33.748896,-84.392355,School
34.0137111,-84.3921496,High Meadows School
32.0273843,-84.3918577,West Side School
33.7695504,-84.3915937,Fowler Street School
33.6814972,-84.3913153,Cleveland Avenue Elementary School
33.7181629,-84.3913156,Thomas Heathe Slater Elementary School
34.777862,-84.3910343,Rocky Creek School
33.7489954,-84.3904825,Girls High School (historical)
33.8195491,-84.389927,E Rivers Elementary School
32.0368286,-84.3899134,Plains High School
32.9023537,-84.3896424,Westwood School
33.7184406,-84.3890933,Carver High School
33.7184406,-84.3888155,Carver Vocational School
33.7151074,-84.3885377,Campbell Elementary School
30.8324134,-84.3885186,Bell-Dixon School (historical)
33.7326069,-84.38826,Key School
33.7537607,-84.3881235,Georgia State University
33.7194444,-84.3880556,Early College High School at Carver
34.6353652,-84.3879787,Oakland Elementary School
34.9484142,-84.387979,Epworth School
33.7178851,-84.3877043,Gammon Theological Seminary
33.7092742,-84.3874265,Luther Judson Price Middle School
32.8279119,-84.3871416,Flint Hill School (historical)
34.9489698,-84.3871455,Epworth Seminary (historical)
30.9515771,-84.3871304,Grants School (historical)
33.778439,-84.3868712,Academy of Medicine
33.7515983,-84.3863211,Georgia State University
33.8278823,-84.3863158,Cathedral of Christ the King
33.5373343,-84.3863139,Carrie D Kendrick Middle School
33.7528842,-84.3860379,Georgia State University
33.7513098,-84.385969,GSU Gym
34.8606383,-84.3854787,Redbush School (historical)
32.9412413,-84.3851983,Burkett School (historical)
33.7536037,-84.3848705,Alumni Hall
34.9498031,-84.3846454,Attala Seminary (historical)
33.8878808,-84.3843714,Liberty Guinn School
33.7546994,-84.3839635,GSU Book Store
33.7546994,-84.3839549,GSU Book Store
33.9107,-84.3839,Solidarity School
33.7339958,-84.3838154,McGill Elementary School
33.7592729,-84.3838156,Atlanta Female Institute (historical)
33.4934,-84.3837,Mundy's Mill High School
33.7853834,-84.3835378,University School
33.9135,-84.383,Polestar Center for Experiential Education
33.7281626,-84.3829821,Daniel H Stanton Elementary School
34.8603605,-84.3829785,Macedonia School
34.0549,-84.3826,Blessed Trinity Catholic High School
33.7573284,-84.3824266,Storrs School (historical)
33.950657,-84.382427,Spalding Drive Elementary School
33.7637172,-84.3821488,Emory University School of Dentistry
33.7534396,-84.381871,Atlanta Medical College (historical)
34.0628767,-84.3815933,Roswell High School
34.4839798,-84.3815899,Sharp Top School (historical)
33.9206578,-84.3813158,Sandy Springs Middle School
33.7720821,-84.3811129,Ivey Hall
33.7209405,-84.3810374,Milton Avenue School
33.7656616,-84.3810377,Hill School (historical)
31.6579484,-84.3810243,Community Grove School (historical)
33.7467732,-84.3807598,Cook School
33.73844,-84.380482,Martin Luther King Junior Middle School
33.7803835,-84.3802044,Tenth Street School
34.9234148,-84.3802008,West Fannin School
33.7392734,-84.3799264,Martin Luther King Jr Middle School Urban Learning Center
33.7403845,-84.3793708,Southside High School
34.9070262,-84.3788118,Gravelly Gap School (historical)
33.6587199,-84.3785368,Blair Village Elementary School (historical)
33.8331063,-84.3785072,(Ex) North Fulton High School (Now AIS)
33.8334,-84.3785,Atlanta International School
33.8326043,-84.3774266,Garden Hills Elementary School
33.7584395,-84.3771486,Austin Thomas Walden Middle School
33.7053854,-84.3768704,Lakewood Elementary School
34.3412045,-84.3768686,Ball Ground Elementary School
33.6717752,-84.3763147,Joseph Humphries Elementary School
33.9251021,-84.3763156,Hammond School
33.7359401,-84.3760374,Neighborhood Charter School
33.6628865,-84.375759,Heritage Academy Elementary School
33.7514952,-84.375482,H R Butler School (historical)
33.8581593,-84.3754822,Sarah Rawson Smith Elementary School
31.9948854,-84.3754684,Providence School (historical)
33.7818,-84.3753,Children's School
34.0512102,-84.3752042,Fellowship Christian Academy
33.9391776,-84.3751664,School
34.9853581,-84.3746451,McCaysville Elementary School
33.7678837,-84.3743707,C W Hill Elementary School
33.7714947,-84.3743708,Ella Smillie School
33.6117768,-84.3738141,Fountain School
34.0101,-84.3738156,Howards School
33.5353899,-84.3735357,Swint Elementary School
34.0081556,-84.37326,Saint Francis School
33.7570506,-84.3724262,John Hope School
33.6987188,-84.372148,Fulton High School
33.9246,-84.3719,Mount Veron Presbyterian School
33.7803882,-84.3715992,Henry Grady High School
33.7551062,-84.3715929,Archbishop R Ryan Memorial School
33.8456596,-84.3715931,R L Hope School
33.6326095,-84.3713142,Hendrix Drive Elementary School
33.755384,-84.3699262,Baptist Memorial Institute (historical)
33.8992694,-84.3699264,High Point Elementary School
34.3103717,-84.3696464,Flatbottom School (historical)
31.8307223,-84.369636,Bronwood School (historical)
34.1161,-84.3693,Mill Springs Acadmey
33.758995,-84.3682594,Howard High School
34.0375994,-84.3682596,Roswell North School
34.1175,-84.3671,Mill Springs Academy
33.6889969,-84.36687,Tull Waters Elementary School
33.8021,-84.3668,Heritage Preparatory School of Georgia
33.8959,-84.3668,Greenfield Hebrew Academy
33.7639949,-84.3665927,Nathan Forest School
34.8131393,-84.3665887,Cherrying School
33.7289958,-84.3663147,Jones School
33.6101101,-84.3646471,Ash Street Elementary School
33.7164961,-84.3646479,Frederick Wilson Benteen Elementary School
33.735,-84.3644444,Parkside Elementary School
33.4942798,-84.3638129,Brown Elementary School
34.0400993,-84.3635372,Crabapple Middle School
33.7001076,-84.3632588,John Wesley Dobbs Elementary School
33.957879,-84.3629819,North Springs High School
33.7420509,-84.3627036,Grant Park School
33.7820499,-84.3627037,Samuel Martin Inman Middle School
33.9664899,-84.3621484,Morgan Falls School
33.6709417,-84.3618696,George High School
33.8201046,-84.3615926,Rock Springs School
34.8784158,-84.3615887,Sugar Creek School (historical)
33.7394254,-84.3615504,Maynard H. Jackson High School
33.6214986,-84.3602026,Consolidated School
33.5717778,-84.3599245,Tara Elementary School
33.9699,-84.3599,Atlanta Country Day School
33.6217764,-84.359647,Forest Park Junior High School
34.2534281,-84.3596466,Macedonia Elementary School
33.9181578,-84.3593704,Webb School
33.8978804,-84.3590927,Ridgeview Middle School
34.1964849,-84.3588136,Union Hill School
33.5245567,-84.3582574,Jonesboro Junior High School
33.737051,-84.3579812,Beulah Heights Bible College
33.548445,-84.357702,George W Kilpatrick Elementary School
33.4615024,-84.357424,Kemp Elementary School
33.5187236,-84.357424,Clayton High School (historical)
34.2495393,-84.3574243,Macedonia School
32.877077,-84.3574193,Cedar Grove School (historical)
33.5085,-84.357,Divine Faith Ministries School
33.5190014,-84.3568684,Middle Georgia College (historical)
33.524279,-84.3565907,Lee Street Elementary School
33.8470483,-84.3560369,Carter School
33.5365009,-84.3554797,North Jonesboro School
33.6081657,-84.3554802,Lake City Elementary School
33.7259402,-84.355481,Georgia State Police Academy
33.7039964,-84.3552031,Thomasville Heights Elementary School
33.7712168,-84.3552034,Highland School
33.147899,-84.3549228,Pine Forest School (historical)
33.7326067,-84.3549254,Atlanta Charter Middle School
33.7566728,-84.3546139,The Atlanta School
33.6053879,-84.3543689,Forest Park Senior High School
33.7459396,-84.3535366,Tech High School
34.0281551,-84.3535369,North Fulton Alternative Center
33.5362,-84.3535,Clayton County Alternative School
33.6037213,-84.3532578,Babb Junior High School
33.7142739,-84.3532586,Thomas Jefferson School
34.6706425,-84.3532547,Rolston School (historical)
31.8548887,-84.3532465,Gunnels Academy (historical)
33.7970495,-84.3529812,Morningside Elementary School
33.5862217,-84.3527021,B C Haynie Elementary School
33.7617726,-84.3521477,Moreland School
33.9612122,-84.352148,Woodland Elementary School
32.9354083,-84.352142,Jeff Davis School (historical)
33.9959,-84.352,Rivercliff Lutheran School
33.7639948,-84.3515922,Bass High School
33.4870575,-84.3513126,Mundys Mill Junior High School
33.9195465,-84.3499257,North Metro Campus Georgia State University
33.6328872,-84.3496468,J E Edmonds Elementary School
33.8597,-84.3493,Sophia Academy
33.7393,-84.349,Light of the World Christian School
33.6387203,-84.3482579,J H Huie Elementary School
33.7412175,-84.3482586,Gordon School
33.524279,-84.3479794,J W Arnold Elementary School
34.9834139,-84.3474218,Painwill School
33.8878806,-84.3457588,Lynwood Park School
33.5148347,-84.3454792,Lillie E Suder Elementary School
32.8170792,-84.3449185,Pleasant Grove School (historical)
33.7798,-84.3447,Charter BHC at Laurel Heights
33.0892906,-84.3446439,Pike County High School
33.7242736,-84.3432583,Sky Haven Elementary School
33.5426118,-84.3429794,Jonesboro Senior High School
33.5936,-84.3426,Clayton Christian School
33.0951236,-84.3424218,Pike County Elementary School
33.7528839,-84.3418695,Whitefoord Elementary School
33.5881661,-84.3415907,Morrow Elementary School
34.8423056,-84.3415877,Robinson School (historical)
31.3176795,-84.3412981,Baker County Elementary School
33.9763,-84.3412,Dunwoody Springs Elementary School
31.7240583,-84.3410244,Dunbar School (historical)
33.4427,-84.3404,Lovejoy Middle School
33.7754,-84.3401,Howard School Central Campus
32.9529077,-84.3399197,Atwater School
34.0937092,-84.339647,Northwestern School
34.4384251,-84.3396442,Marble Hill School (historical)
33.4789,-84.3396,Clayton County Regional Law Enforcement Academy
33.7698279,-84.3393694,Lin Elementary School
33.9959335,-84.3393698,Crestwood High School
33.9959335,-84.3393698,Sandy Springs Middle School
34.091,-84.3393,Crabapple Crossing Elementary School
34.061,-84.3391,Hembree Springs Elementary School
30.7365829,-84.3390716,Beck Branch School
33.491825,-84.338504,Laurus Technical Institute
33.8098269,-84.3382583,Briar Vista Elementary School
33.8434372,-84.3382584,Cross Keys High School
33.8758662,-84.3378741,KIPP PATH Academy Elementary School
33.8759364,-84.3377029,Jim Cherry School
33.5467,-84.3376,James Jackson Elementary School
33.75433,-84.3373384,Sammye E Coan Middle School
33.8414928,-84.3371472,Woodward Elementary School
34.0112109,-84.3368696,Cottage School
34.0343,-84.3366,Eaton Academy
33.9595455,-84.3357585,Austin Elementary School
31.9812753,-84.3357452,Tropic School (historical)
33.0490147,-84.3349209,Fincher School (historical)
30.8771348,-84.3349058,Whigham School
31.6773928,-84.3346347,Piney Grove School (historical)
33.9008,-84.3346,Marist School
34.0545433,-84.3343693,Montessori Hammond School
34.0539,-84.3342,Elkins Pointe Middle School
33.7189,-84.3333,New Generation Christian Academy
33.6403869,-84.3332574,Jewell Anderson Elementary School
34.0611,-84.3325,Cross of Life Montessori School
33.910076,-84.3320928,Montgomery Elementary School
33.8914916,-84.3318693,Johnson Ferry Elementary School
33.9445458,-84.3318694,DeKalb County Cultural Arts School
33.7406619,-84.3315913,Burgess-Peterson Academy School
33.8742698,-84.3315916,Oglethorpe University
34.0359326,-84.3315916,Mimoza School
34.0362,-84.3315,Mimosa Elementary School
33.7462173,-84.3313135,Crim Open Campus High School
34.4012036,-84.3310331,Federal School (historical)
34.0324,-84.3306,Chrysalis Experiential Academy
33.7228846,-84.3304801,Gartha B Peterson Elementary School (historical)
33.8856584,-84.3304805,Our Lady of the Assumption School
31.8273896,-84.3304685,Holly Mott School (historical)
33.7237179,-84.3296466,East Atlanta Middle School
33.8801154,-84.3290443,Saint Martin's Episcopal School
34.8528611,-84.3288093,Fannin County Comprehensive High School
33.7551059,-84.3285357,Fred A Toomer Elementary School
33.8263,-84.3283,Kittredge Magnet School
33.8264931,-84.328258,Kittredge Magnet School for High Achievers
32.9679072,-84.3279752,Gordon School (historical)
33.5945547,-84.3279792,Clayton College and State University
33.7187,-84.3276,First Steps Christian Academy
34.3425934,-84.3274225,Cherry Grove School (historical)
33.5231678,-84.3268676,M D Roberts Middle School
33.7051073,-84.3263131,Walker High School
32.8831881,-84.3260299,Robert E Lee Grade School (historical)
33.7051,-84.3259,McNair High School
32.9004097,-84.3257522,Worthy Middle School
33.9379,-84.3256,Atlanta North School of SDA
33.8256598,-84.3254802,Briarcliff High School
34.3028718,-84.3249228,Liberty School (historical)
31.9573871,-84.3249118,Thomson School (historical)
32.885688,-84.3246409,Robert E Lee Institute
33.7993388,-84.3240197,Benjamin Franklin Academy
33.7980093,-84.3238973,Nell Hodgson Woodruff School of Nursing
33.756217,-84.3224243,Kirkwood Elementary School
33.5601,-84.3224,Mount Zion Christian Academy
33.8742697,-84.3221467,Ashford Park Elementary School
33.8143,-84.3219,Torah Day School of Atlanta
33.8292708,-84.3207577,Margaret Harris High School for Exceptional Students
33.8292708,-84.3207577,Mount Moriah School
33.832,-84.3205,Immaculate Heart of Mary
32.8529115,-84.320474,Shepherd School (historical)
33.9151049,-84.3202053,Kittridge Magnet School
33.8476037,-84.3199244,Montclair School
34.1206199,-84.3194652,Summit Hill Elementary School
34.1206199,-84.319448,Summit Hill Elementary School
32.8637444,-84.3188073,Upson County Area Vocational School
32.8945765,-84.3185298,East Thomaston School
33.8152,-84.3183,Intown Community School
33.5817773,-84.3182566,Lake Harbin Elementary School
34.6578652,-84.3179754,Twiggs School (historical)
32.971796,-84.3176972,Rocky Mount School (historical)
34.0112109,-84.3174245,Esther Jackson School
33.5963,-84.3168,Evangelical Temple Christian Academy
33.6887187,-84.3165905,Boulder Crest School
33.7785594,-84.3165682,Fernbank Elementary School
33.7783333,-84.3163889,Fernbank Elementary School
33.7348286,-84.3160351,Terry Mill Elementary School
33.9281573,-84.3157577,Shallowford Elementary School
33.7931896,-84.3157184,Druid Hills High School
33.9451013,-84.31548,Dunwoody High School
34.0216,-84.3153,Fulton County Charter High School For Mathematics and Science
32.0071085,-84.3149114,Friendship School (historical)
33.7366,-84.3148,Clara Mohammed School
33.591777,-84.3146454,Morrow Senior High School
33.7451061,-84.3146462,Charles R Drew Charter School
33.8614922,-84.3146464,Skyland School
33.5937213,-84.3143676,Morrow Junior High School
33.7117737,-84.3143682,Gresham Park Elementary School
32.8867991,-84.3138075,Upson High School
33.699274,-84.3135348,Meadowview Elementary School
30.9499109,-84.3121278,Wayside School (historical)
33.9459346,-84.3118686,Vanderlyn Elementary School
33.8967692,-84.3110352,Sexton Woods Psychoeducational Center
33.8173265,-84.3107573,W D Thompson School
33.9925,-84.3107,River Eves Elementary School
32.7998579,-84.3104733,Daniel School (historical)
33.8291,-84.3098,Cliff Valley School
32.149605,-84.3090791,Shiloh School (historical)
34.0611,-84.3083,Fulton Science Academy
33.9409347,-84.3082574,DeKalb Community College North Campus
33.7273287,-84.3077014,Leslie J Steele Elementary School
33.7484393,-84.3071459,East Lake Elementary School
34.8289728,-84.3071415,Snake Nation School
33.2778926,-84.3065906,Cowan Road Elementary School
33.8978802,-84.3063129,Chamblee High School
33.7832282,-84.3062952,City Schools of Decatur - Admin Office
33.2728926,-84.3060351,Griffin Christian Academy
33.7637137,-84.3057582,Oakhurst Elementary School
33.7553836,-84.3054793,Fifth Avenue School
33.9435,-84.305,New Atlanta Jewish Community High School
33.9423236,-84.304924,Occupational Education Center North
32.0118308,-84.3049112,Mount Salem School (historical)
33.7731664,-84.3049153,Saint Thomas More School
33.9964,-84.3049,River Eves Elementary School
33.8331595,-84.3040905,Sagamore Hills Elementary School
34.3387046,-84.3040884,Conn Creek School (historical)
34.933693,-84.3035309,Hot House School (historical)
32.9856843,-84.3029749,Fairview School (historical)
33.9427,-84.3024,DeKalb High School of Technology
33.6970517,-84.30159,Clifton Elementary School
33.390947,-84.3015898,Place of Worship:Calvary Baptist School
34.0714874,-84.3010346,Alpharetta School
33.241782,-84.3007572,Griffin High School
34.0683,-84.3004,King's Ridge Christian School
33.6128874,-84.3002006,East Clayton School
33.911491,-84.2999237,Huntley Hills Elementary School
34.2728723,-84.2990889,Oakland School (historical)
33.7680884,-84.2990143,Renfore Middle School
34.0767721,-84.2988207,Independence Alternative School
30.9251894,-84.2982382,Connells School (historical)
33.9854,-84.298,Brandon Hall School
33.7181623,-84.2979788,Ronald E McNair Junior High School
33.9481568,-84.2974237,Kingsley Elementary School
33.7708615,-84.2969273,Decatur High School
33.6759412,-84.2968674,Cedar Grove Elementary School
33.3409473,-84.2965901,Sunny Side School
32.8198573,-84.2960287,Welcome Grove School (historical)
33.7823264,-84.2960346,Clairemont School
33.9276017,-84.2960347,Chesnut School
34.433981,-84.2960315,Weaver School (historical)
33.9312127,-84.2957569,Peachtree Junior High School
34.6311993,-84.2957522,Salem School (historical)
34.0112108,-84.2952014,Hillside Elementary School
33.3217808,-84.2949235,Beaver Brook School
33.7253843,-84.2946454,Tilson Elementary School
33.2506702,-84.2940907,Flynt Street Middle School
33.6762189,-84.2940896,Cedar Grove High School
34.8723054,-84.2940857,Alsobrook School (historical)
32.8767996,-84.293807,New School (historical)
33.5559444,-84.2932557,Mount Zion Elementary School
33.8689919,-84.2932567,Dresden Elementary School
31.0793522,-84.2929617,County Line School (historical)
32.0212752,-84.2929666,Thalean School (historical)
33.7606,-84.2923,Lullwater School
33.8643,-84.2922,Saint Pius X Catholic High School
33.7747879,-84.292109,Decatur First Methodist Kindergarten
33.6867,-84.2921,Cedar Grove Middle School
34.0789,-84.2919,Alpharetta Methodist Christian Academy
33.7281,-84.2918,Saint Peter Regional Catholic School
33.2523368,-84.2915907,Spalding County Junior High School
33.2553923,-84.2915906,Griffin Technical Institute
33.8495479,-84.29159,Heritage Center
33.2509478,-84.2907573,Orrs School
32.817913,-84.2907508,Martha Berry School (historical)
34.8792498,-84.2907522,Alsobrook School (historical)
34.0070442,-84.2904791,Centennial High School
33.8023268,-84.2899232,W P Medlock School
33.7648268,-84.2896478,Winnona Park Elementary School
34.2392617,-84.2896444,Free Home Elementary School
33.2965031,-84.289368,Vineyard School
33.7759358,-84.2893731,Glenwood Academy
32.7948583,-84.2893616,Martin School (historical)
33.8362149,-84.2888121,Oak Grove Elementary School
34.0755,-84.2886,Lionheart School
33.8278818,-84.2882564,Coralwood School
33.1001227,-84.2871432,Elder Institute (historical)
33.390669,-84.287145,Hampton Elementary School
34.08,-84.286,Manning Oaks Elementary School
33.5898324,-84.2857556,Adamson Junior High School
34.1506524,-84.2854781,Hopewell School
33.8451035,-84.284923,Lakeside High School
33.8249,-84.2846,Arbor Montessori
33.7064959,-84.2838116,Flat Shoals Elementary School
33.71594,-84.2838116,Kelley Lake School
33.9934,-84.2834,Holcomb Bridge Middle School
34.3520377,-84.2826986,Mackey School (historical)
33.995,-84.2826,Holcomb Bridge School
33.7731,-84.2823,Friends School of Atlanta
30.8440805,-84.281848,Turkey Creek School (historical)
33.7278841,-84.2813116,Baptist University of America
34.0406547,-84.2813118,Haynes Bridge Middle School
33.9184351,-84.2810341,Hightower Elementary School
33.7632,-84.281,Waldorf School of Atlanta
33.7642721,-84.2804783,Columbia Seminary
34.7345304,-84.2804731,Big Creek School (historical)
33.2820584,-84.2802014,Highland Mills School (historical)
34.0648208,-84.2802006,Kimball Bridge School
33.2673363,-84.2799237,Kincaid School
33.9073243,-84.2790896,Doraville Driver Education Center
33.7270508,-84.2785337,Toney School
34.0065,-84.278,Nesbit Ferry Montessori
34.0181,-84.2779,Mount Pisgah Christian School
33.2356706,-84.2777014,Annie Shockley Grade School (historical)
33.2381704,-84.2777014,Anne Street Elementary School
33.2453922,-84.2768682,Fourth Ward School
32.9290199,-84.2765849,Ben Hill School (historical)
33.4270574,-84.2763112,Liberty Hill School (historical)
33.2551141,-84.2760349,West Griffin School
33.8151042,-84.2760338,Laurel Ridge Elementary School
33.8862,-84.276,Yeshiva Atlanta High School
34.8970273,-84.2757516,Toccoa School (historical)
33.6887185,-84.2743667,DeKalb Community College South Campus
34.0517038,-84.2742096,New Prospect Elementary School
34.9136937,-84.2735295,Mineral Bluff School
33.5087,-84.2734,Jodeco Learning Center
33.2403924,-84.2732569,Cora Nimmor School (historical)
33.6878852,-84.2732555,Occupational Education Center South
33.8189978,-84.273257,Shamrock Middle School
33.8595475,-84.2732559,Hawthorne Elementary School
34.679254,-84.2729731,Blue Ridge School (historical)
33.7526056,-84.2724224,Hooper Alexander School
33.7187176,-84.2718667,Misty Waters Elementary School
33.8908,-84.2716,Sequoya Middle School
33.8912135,-84.2715893,Sequoyah High School
33.893158,-84.2715893,Cary Reynolds School
34.775363,-84.2715839,Stanley Creek School
33.7031626,-84.2696444,Southwest DeKalb Vocational School
33.8389925,-84.2696446,Briarlake Elementary School
33.6797222,-84.2691667,Oak View Elementary School
33.1292875,-84.2688102,New Hope School (historical)
33.7842716,-84.2685334,Scottdale School
34.9484152,-84.2682518,Pleasant Hill School (historical)
33.759316,-84.2676996,Avondale High School
31.7373922,-84.2665784,Hutchinson School (historical)
33.7437169,-84.2654777,Knollwood Elementary School
33.7453,-84.2647,Atlanta Area Accelerated Academy
33.5233434,-84.2643136,Red Oak Elementary
33.7017737,-84.2638108,DeKalb Fire Academy
33.2326148,-84.2632567,Crescent School
33.2956691,-84.2629789,Jordan Hill Elementary School
33.2562248,-84.2624237,Northside School
33.6242758,-84.2624217,Anvil Block School (historical)
33.8041787,-84.2619541,McLendon Elementary School
33.773994,-84.2618664,Avondale Elementary School
33.2576137,-84.2613126,Moore School
33.5679,-84.2609,Atlanta Baptist College
34.0213215,-84.2609018,Holy Redeemer Elementary School
33.246225,-84.2604792,Taylor Street Middle School
33.2712246,-84.2590902,Atkinson School
33.8562143,-84.2590888,Henderson Mill Elementary School
33.9023243,-84.258811,Oakcliff Elementary School
33.7292729,-84.2585329,Wadsworth Elementary School
32.9156872,-84.2585289,Liberty School (historical)
31.904056,-84.2585217,Smithville Academy
33.988989,-84.2582555,Chattahoochee River Environmental Education Center
33.7118,-84.2581,Greenforest-McCalep Christian Academic Center
33.7253,-84.258,Miller Preparatory Academy for Boys
33.7203842,-84.2579774,Columbia Elementary School
33.1678962,-84.2576998,Friendship School (historical)
33.2567803,-84.2574236,Kelsey School
33.2581691,-84.2574236,Fairmont School
32.8615227,-84.2571394,Lanier School (historical)
33.7743,-84.2571,International Community Charter School
33.2384475,-84.2557567,Third Ward School
33.4756682,-84.255477,Progress School (historical)
33.7870491,-84.2554774,Avondale School
34.826751,-84.2554724,Padena School (historical)
30.9701884,-84.2554594,Live Oak School (historical)
34.6320328,-84.2551949,Bucktown School (historical)
32.9423527,-84.2549179,Rock Hill School
33.7861111,-84.2547222,Robert Shaw Traditional Theme School
32.8923547,-84.2543619,Searcy School (historical)
33.7871,-84.2543,Robert Shaw Theme School
33.7555556,-84.2541667,Midway Elementary School
34.7664744,-84.2526939,Ray School (historical)
34.7361972,-84.2524161,Mathis Chapel School (historical)
33.6991,-84.2523,Rainbow Park Baptist Church School
33.8667696,-84.252144,Henderson High School
32.8323572,-84.2518613,Watson School (historical)
33.7369,-84.2516,Northwoods Montessori School
33.8248525,-84.2515566,Georgia MLS Training Institute
33.7281617,-84.2507548,Columbia High School
34.0103774,-84.2504775,Barnwell School
33.7632,-84.2498,Becker Adventist School
33.7320505,-84.2474214,Snapfinger Elementary School
33.9287126,-84.2474217,Mechanicsville School (historical)
34.8811945,-84.247417,East Fannin Middle School
33.8853803,-84.2465883,Wiley School (historical)
33.7478834,-84.2457547,Peachcrest Elementary School
34.0767,-84.2451,Creek View Elementary School
33.6509416,-84.2446433,New County Line School
33.6573304,-84.2443655,County Line School
33.2187265,-84.2440894,Sacred Heart School
33.4972,-84.244,Pates Creek Elementary School
34.0756,-84.2416,Creek View Elementary School
33.6895517,-84.2410322,Bob Mathis Elementary School
34.9348047,-84.2407505,Jerusalem School (historical)
33.4959,-84.2405,Pate's Creek Elementary School
31.5054524,-84.2404644,Riverview Academy
33.2231,-84.2401,Futral Road Elementary School
33.2556693,-84.2399231,Jackson Road Elementary School
33.8734361,-84.2399212,Evansdale School
34.0188785,-84.2399202,Autrey Mill Middle School
33.8026045,-84.2396434,Atlanta School for the Deaf
34.0188672,-84.239487,Autrey Mill Middle School
33.8051,-84.2391,DeKalb Truancy School
34.8764725,-84.2390834,Morganton School
34.9023053,-84.2388058,Bald Knob School (historical)
31.590173,-84.2387985,Deerfield-Windsor Lower School
33.8057,-84.2385,DeKalb Alternative Night School
33.2195,-84.2381,Grace Fellowship Christian School
33.8053822,-84.2379767,Adult Education Center
33.6831,-84.2371,Cathedral Academy
33.2426142,-84.2368673,East Griffin Elementary School
33.7973268,-84.2368655,Indian Creek School
33.747328,-84.2365878,Towers High School
33.7937158,-84.2365878,Clarkston High School
33.8906581,-84.2365878,Pleasantdale Elementary School
33.9628786,-84.2365878,Peachtree Elementary School
33.6536,-84.2359,Annointed Word Christian
33.5373337,-84.2357538,Smith-Barnes School
32.0896079,-84.2354656,Sumter School
33.85677,-84.2346432,Midvale School
32.0659974,-84.234632,Eurlow School
33.789827,-84.2343654,DeKalb Technical Institute
34.0356549,-84.2340875,Dolvin School
34.1587079,-84.234087,Midway School
33.7512168,-84.2332542,Glenhaven School
32.5540344,-84.2332481,Taylor County Elementary School
32.059331,-84.233243,Americus High School
33.2277,-84.233,Spalding High School
33.2287263,-84.232978,Griffin Academy
33.792327,-84.2329765,DeKalb Community College
33.7864,-84.2327,Indian Creek Christian School
32.9337421,-84.2326951,Liberty School (historical)
34.0553,-84.2318,Ocee Elementary School
33.9426,-84.2314,Susan Stripling Elementary School
33.543167,-84.2310314,Stockbridge Elementary School
33.5417782,-84.2307536,Stockbridge Senior High School
34.0691,-84.2306,Webb Bridge Middle School
33.4465018,-84.2301985,Crossroads School (historical)
34.4250927,-84.2301959,West Side School
32.045998,-84.2301872,Cobb School
33.9441,-84.2301,Stripling Elementary School
32.0840526,-84.2299098,Staley Middle School
34.0666,-84.2299,Webb Bridtge Middle School
33.9842671,-84.2290873,Pickneyville Middle School
33.7798273,-84.2285318,Dunaire Elementary School
33.6092763,-84.227976,Fairview School
33.6667,-84.2267,Narvie Harris Elementary School
33.4813,-84.2265,Community Bible School
33.6668,-84.2264,Narvie Harris Elementary School
33.8101045,-84.2257539,Jolly School
34.9789707,-84.2251947,Bell School
32.0671086,-84.2251873,Reese Park Grammar School (historical)
33.7048293,-84.2249205,Rainbow Elementary School
33.7023293,-84.2246427,Southwest DeKalb High School
32.0782196,-84.2240763,East View School
30.8749133,-84.2240684,Washington School
33.3773356,-84.22381,Saint Paul School (historical)
34.9128609,-84.2238054,Loving School
33.7426061,-84.2232539,Atherton School
33.758439,-84.2226983,Rowland School
33.8275317,-84.2223265,Idlewood Elementary School
33.8373279,-84.2218716,Brockett Elementary School
33.855729,-84.2217531,St. Andrews Preschool
34.0625989,-84.2215866,Dodd School (historical)
33.5576111,-84.2210311,Stockbridge Junior High School
33.7072,-84.221,Love The Children Christian School
34.0645837,-84.2209967,Alpharetta International Academy
33.8556591,-84.2207536,Tucker Elementary School
33.7223289,-84.220476,Canby Lane Elementary School
32.67653,-84.2204706,Damascus School (historical)
33.9375,-84.2195,Hopewell Christian Academy
32.55459,-84.2190812,Taylor County High School
33.6789967,-84.2185313,Chapel Hill Elementary School
33.8685431,-84.2183143,School
33.8687143,-84.2182535,Livsey School
34.9459159,-84.217972,Cutcane School
31.5898955,-84.2179647,Westover High School
34.758975,-84.2179713,Dial School (historical)
30.9482447,-84.2168466,Pleasant Valley School (historical)
33.7092738,-84.2163091,South DeKalb Psychoeducational Center
34.9173053,-84.2163052,Flint Mill School (historical)
32.0562758,-84.2162979,Georgia Southwestern College
33.709,-84.2162,DeKalb Transition School
32.9681854,-84.2160282,Union Hill School (historical)
33.5792773,-84.2160309,Morris Grove School (historical)
32.059609,-84.2160202,Anthony School (historical)
33.4267799,-84.2157536,Oakland School (historical)
33.8562146,-84.2157534,Tucker High School
34.068,-84.2149,Lake Windward Elementary School
34.0624,-84.2146,Clear Springs Christian Academy
31.2424041,-84.2143501,Mitchell-Baker High School
33.8473155,-84.2140439,Tucker Middle School
32.0679422,-84.2129647,Cherokee School
33.6548308,-84.2124199,Faith Christian Academy
30.7815825,-84.2124002,Centennial School (historical)
31.5837845,-84.2121311,Albany Junior College
33.8326296,-84.2121213,Stone Mountain Middle School
33.7795497,-84.2115868,Allgood Elementary School
34.0695,-84.211,Lake Windward Elementary School
34.0482,-84.2109,Taylor Road Middle School
34.0535,-84.2103,Taylor Road Middle School
30.8871352,-84.2101791,Northside School
30.7029733,-84.2096216,Rocky Hill School (historical)
33.9511,-84.2079,Norcross Christian Academy
31.2274045,-84.2074053,Mitchell County Middle School
33.0609586,-84.2071404,Milner Cross Roads School (historical)
33.68483,-84.207142,Green Pastures Christian Academy
33.9451015,-84.2071416,Norcross Elementary School
33.4394,-84.207,People's Baptist Academy
33.4992795,-84.2068636,Eagles Landing High School
33.8114936,-84.2065865,West End School (historical)
31.2379599,-84.205461,Rockdale High School (historical)
31.0037987,-84.2054579,Shiver School
33.3727,-84.2048,Luella Middle School
34.290315,-84.2044877,Matt Elementary School
33.1659528,-84.2043644,Central School (historical)
33.9387128,-84.204086,Summerous Middle School
34.8731397,-84.2040825,Star Creek School (historical)
30.8715801,-84.2040675,Southside School
33.8098269,-84.2035308,Hambrick School
33.5002,-84.2033,Eagle's Landing Middle School
31.612673,-84.2032423,Deerfield-Windsor Upper School
32.0123884,-84.2032414,Jerusalem School (historical)
31.5623961,-84.2029642,West Town Elementary School
33.940935,-84.2021414,Norcross High School
33.8005,-84.2021,East DeKalb Campus
33.8005,-84.2021,East DeKalb Special Education Center
34.09,-84.202,McGinnis Woods Country Day School
33.8106603,-84.2015863,Stone Mountain High School
33.7992,-84.2011,DeKalb Alternative School
33.0740136,-84.2004738,Stroudsville School (historical)
33.7417731,-84.2001975,Woodridge Elementary School
30.8718579,-84.1999007,Cairo High School
31.6079509,-84.1990755,Sherwood Acres Elementary School
33.1173445,-84.1982522,Birch Street School
33.7886111,-84.1980556,Rockbridge Elementary School
33.5634444,-84.1979747,Cotton Indian Elementary School
33.430669,-84.1976973,Oakland Elementary School
33.1165,-84.1973,Saint George's Episcopal School
33.501,-84.1969,Flippen Elementary School
34.7375869,-84.1965822,Bunker Hill School
33.8995471,-84.1963079,Rockbridge Elementary School
33.7629,-84.1963,Love and Grace Christian Academy
34.0553,-84.1959,Abbott Hill Elementary School
33.4592799,-84.1957525,Foster School (historical)
33.7831,-84.1953,Freedom Middle School
